     2.11           OBSERVATION DATA    G (GPS)             RINEX VERSION / TYPE
teqc  2010Oct21                         20110101 01:04:05UTCPGM / RUN BY / DATE
Linux 2.4.20-8|Pentium IV|gcc -static|Linux|486/DX+         COMMENT
ALGO CACS-GSD 883160 ALGONQUIN PARK ON CANADA               MARKER NAME
40104M002                                                   MARKER NUMBER
OPERATOR            NRCan/GEODETIC SURVEY OF CANADA         OBSERVER / AGENCY
124-U               AOA BENCHMARK ACT   3.3.32.2N           REC # / TYPE / VERS
386                 AOAD/M_T        NONE                    ANT # / TYPE
   918129.4000 -4346071.2000  4561977.8000                  APPROX POSITION XYZ
        0.1000        0.0000        0.0000                  ANTENNA: DELTA H/E/N
     1     1                                                WAVELENGTH FACT L1/2
     7    L1    L2    C1    P2    P1    S1    S2            # / TYPES OF OBSERV
    30.0000                                                 INTERVAL
    P1 =    P1  TurboRogue; =    Y1  Benchmark              COMMENT
    L1 = L1(CA)                                             COMMENT
    P2 =    P2  TurboRogue; =    Y2  Benchmark              COMMENT
    L2 = L2(P2) TurboRogue; = L2(Y2) Benchmark              COMMENT
 SNR is mapped to RINEX snr flag value [0-9]                COMMENT
  L1 & L2: min(max(int(snr_dBHz/6), 0), 9)                  COMMENT
  2011     1     1     0     0    0.0000000     GPS         TIME OF FIRST OBS
                                                            END OF HEADER
 11  1  1  0  0  0.0000000  0  9G18G21G14G19G12G27G09G15G22
 107148782.478 7  83492564.916 8  20389724.864    20389723.064    20389724.297
        44.000          48.000
 120481779.755 4  93881899.458 4  22926926.697    22926925.697    22926926.220
        28.100          24.900
 115911468.762 6  90320639.342 5  22057203.335    22057201.875    22057202.837
        39.000          33.000
 130904672.763 2 102003653.768 2  24910323.000    24910319.787    24910320.526
        17.000          15.100
 129020017.902 3 100535078.494 3  24551693.391    24551694.094    24551693.610
        23.000          22.100
 118380573.626 6  92244605.749 5  22527075.104    22527074.775    22527074.619
        37.000          35.100
 108271982.837 8  84367769.593 7  20603477.188    20603476.563    20603476.808
        48.000          43.000
 122043546.824 5  95098865.858 5  23224116.482    23224116.027    23224116.506
        32.000          32.000
 108665703.376 8  84674595.148 7  20678378.940    20678375.378    20678377.834
        48.000          47.000
 11  1  1  0  0 30.0000000  0  9G18G21G14G19G12G27G09G15G22
 107165881.840 7  83505889.095 8  20392978.688    20392976.905    20392978.144
        44.000          48.000
 120585875.134 5  93963012.665 4  22946736.285    22946734.328    22946735.318
        30.100          24.900
 115843358.016 6  90267566.046 5  22044242.096    22044241.208    22044241.554
        38.000          34.000
 130941588.556 2 102032419.321 2  24917347.466    24917344.247    24917346.185
        17.000          17.000
 128932871.779 3 100467172.454 3  24535109.100    24535109.983    24535109.258
        22.100          22.100
 118450474.653 6  92299074.077 5  22540376.814    22540376.454    22540376.375
        37.000          35.100
 108298417.297 7  84388367.881 7  20608507.309    20608506.843    20608506.983
        47.000          43.000
 122132157.095 5  95167912.799 5  23240978.216    23240978.335    23240978.396
        32.000          33.000
 108624064.876 8  84642149.565 7  20670455.223    20670451.802    20670454.263
        48.000          46.000
 11  1  1  0  1  0.0000000  0  9G18G21G14G19G12G27G09G15G22
 107183389.241 7  83519531.222 8  20396310.186    20396308.442    20396309.692
        44.000          48.000
 120690195.933 5  94044301.555 4  22966587.157    22966586.590    22966586.752
        30.100          27.100
 115775498.559 6  90214688.568 5  22031328.886    22031327.671    22031328.338
        38.000          34.000
 130978951.824 3 102061533.559 2  24924457.352    24924454.508    24924456.004
        21.100          17.000
 128845880.389 3 100399387.022 3  24518555.868    24518556.158    24518555.719
        23.000          19.300
 118520725.177 6  92353814.748 6  22553744.991    22553744.710    22553744.560
        37.000          36.000
 108325515.975 7  84409483.732 7  20613664.261    20613663.541    20613663.808
        47.000          43.000
 122220859.867 5  95237031.840 5  23257857.799    23257857.547    23257858.063
        33.000          32.000
 108582764.645 8  84609967.570 7  20662596.245    20662592.675    20662595.163
        48.000          47.000
 11  1  1  0  1 30.0000000  0  9G18G21G14G19G12G27G09G15G22
 107201305.546 7  83533491.980 8  20399719.893    20399717.820    20399719.206
        44.000          48.000
 120794739.512 5  94125764.041 4  22986481.478    22986480.587    22986480.631
        30.100          24.900
 115707890.954 6  90162007.332 5  22018463.674    22018462.454    22018463.110
        38.000          34.000
 131016760.541 3 102090994.862 2  24931652.549    24931649.771    24931651.297
        19.900          17.800
 128759047.132 3 100331724.803 2  24502031.982    24502031.773    24502031.727
        23.800          17.000
 118591322.986 6  92408826.017 5  22567179.124    22567179.000    22567178.846
        37.000          35.100
 108353277.504 8  84431116.099 7  20618947.079    20618946.361    20618946.659
        48.000          43.000
 122309654.077 5  95306222.135 5  23274754.770    23274754.295    23274754.870
        33.000          31.000
 108541804.162 8  84578050.312 7  20654801.407    20654798.109    20654800.426
        48.000          47.000
 11  1  1  0  2  0.0000000  0  9G18G21G14G19G12G27G09G15G22
 107219630.817 7  83547771.421 8  20403206.866    20403204.989    20403206.336
        44.000          48.000
 120899502.512 5  94207397.510 4  23006416.896    23006416.282    23006416.323
        30.100          24.900
 115640535.561 6  90109522.632 5  22005646.282    22005645.175    22005645.808
        39.000          34.000
 131055012.495 3 102120801.584 2  24938931.061    24938928.764    24938929.434
        19.900          17.000
 128672375.095 3 100264188.200 2  24485538.412    24485538.719    24485538.495
        21.100          17.800
 118662265.742 6  92464106.092 5  22580679.010    22580679.022    22580678.745
        37.000          35.100
 108381700.817 8  84453264.142 7  20624355.722    20624355.129    20624355.331
        48.000          43.000
 122398538.631 5  95375482.834 5  23291669.362    23291668.416    23291669.287
        33.000          31.000
 108501184.726 7  84546398.809 7  20647071.773    20647068.457    20647070.802
        47.000          47.000
 11  1  1  0  2 30.0000000  0  9G18G21G14G19G12G27G09G15G22
 107238365.407 7  83562369.805 8  20406771.995    20406770.077    20406771.441
        44.000          48.000
 121004482.339 5  94289199.876 3  23026394.734    23026393.440    23026393.778
        31.000          23.800
 115573432.838 6  90057234.828 5  21992876.923    21992875.895    21992876.637
        39.000          34.000
 131093706.259 3 102150952.543 2  24946293.558    24946292.277    24946292.514
        23.000          15.100
 128585867.427 3 100196779.719 3  24469076.276    24469076.915    24469076.836
        23.800          19.300
 118733551.155 6  92519653.172 6  22594244.404    22594244.141    22594243.945
        37.000          36.000
 108410783.959 7  84475926.334 7  20629890.146    20629889.480    20629889.717
        47.000          42.000
 122487512.318 5  95444812.970 5  23308600.243    23308599.776    23308600.586
        33.000          31.000
 108460907.994 7  84515014.344 7  20639407.565    20639404.077    20639406.416
        47.000          47.000
 11  1  1  0  3  0.0000000  0  9G18G21G14G19G12G27G09G15G22
 107257509.947 7  83577287.629 8  20410415.083    20410413.244    20410414.441
        44.000          48.000
 121109676.151 5  94371169.049 3  23046412.093    23046410.803    23046411.198
        31.000          23.000
 115506582.969 6  90005144.036 5  21980155.829    21980154.863    21980155.362
        38.000          35.100
 131132839.666 3 102181446.119 2  24953740.628    24953739.374    24953739.977
        22.100          16.100
 128499527.432 4 100129501.847 3  24452647.856    24452646.778    24452647.508
        24.900          19.300
 118805176.830 6  92575465.393 5  22607874.290    22607874.073    22607873.925
        37.000          35.100
 108440525.529 8  84499101.586 7  20635549.894    20635549.026    20635549.456
        48.000          42.000
 122576574.080 5  95514211.737 5  23325547.278    23325547.581    23325548.160
        32.000          30.100
 108420975.298 7  84483897.958 7  20631808.570    20631805.108    20631807.381
        47.000          47.000
 11  1  1  0  3 30.0000000  0  9G18G21G14G19G12G27G09G15G22
 107277064.699 7  83592525.091 8  20414136.150    20414134.339    20414135.645
        44.000          48.000
 121215081.064 4  94453302.726 3  23066469.630    23066468.767    23066468.850
        28.100          22.100
 115439986.063 6  89953250.356 5  21967482.625    21967481.996    21967482.264
        38.000          35.100
 131172410.530 3 102212280.547 1  24961271.065    24961268.959    24961270.636
        22.100          11.000
 128413358.362 4 100062357.179 3  24436249.827    24436249.199    24436249.596
        24.900          21.100
 118877140.565 6  92631541.035 5  22621568.616    22621568.208    22621568.288
        38.000          35.100
 108470924.293 8  84522788.940 7  20641334.670    20641333.715    20641334.187
        48.000          42.000
 122665722.948 5  95583678.366 5  23342513.027    23342511.793    23342512.951
        32.000          30.100
 108381388.201 7  84453050.873 7  20624275.301    20624271.947    20624274.259
        47.000          47.000
 11  1  1  0  4  0.0000000  0  9G18G21G14G19G12G27G09G15G22
 107297030.281 7  83608082.678 8  20417935.398    20417933.646    20417934.915
        44.000          48.000
 121320694.448 4  94535598.840 3  23086567.109    23086567.109    23086566.255
        29.000          23.000
 115373643.141 6  89901554.606 5  21954858.047    21954857.253    21954857.421
        38.000          35.100
 131212416.750 3 102243454.209 2  24968884.292    24968881.062    24968883.369
        23.800          13.900
 128327363.725 3  99995348.441 2  24419884.933    24419884.559    24419885.193
        23.000          15.100
 118949440.114 6  92687878.348 5  22635326.709    22635326.516    22635326.410
        37.000          35.100
 108501978.953 7  84546987.388 7  20647243.835    20647243.241    20647243.471
        47.000          42.000
 122754957.574 5  95653211.843 5  23359493.941    23359492.990    23359494.054
        32.000          31.000
 108342148.097 8  84422474.170 7  20616808.271    20616804.767    20616807.189
        48.000          47.000
 11  1  1  0  4 30.0000000  0  9G18G21G14G19G12G27G09G15G22
 107317407.211 7  83623960.802 8  20421813.399    20421811.246    20421812.676
        44.000          48.000
 121426513.359 4  94618055.096 3  23106703.385    23106703.206    23106702.804
        29.000          23.000
 115307554.367 6  89850056.871 5  21942282.311    21942281.038    21942281.740
        39.000          35.100
 131252856.672 3 102274965.839 2  24976579.853    24976577.131    24976578.284
        21.100          15.100
 128241546.276 3  99928477.755 3  24403553.884    24403553.928    24403554.745
        23.800          19.300
 119022073.070 6  92744475.461 5  22649148.159    22649148.201    22649147.886
        37.000          35.100
 108533687.736 7  84571695.535 7  20653277.884    20653277.268    20653277.539
        47.000          42.000
 122844277.157 5  95722811.499 5  23376490.083    23376490.419    23376490.477
        31.000          32.000
 108303256.306 8  84392168.884 7  20609407.417    20609403.906    20609406.311
        48.000          47.000
 11  1  1  0  5  0.0000000  0  9G18G21G14G19G12G27G09G15G22
 107338195.859 7  83640159.737 8  20425769.005    20425767.307    20425768.517
        44.000          48.000
 121532534.938 4  94700669.231 3  23126878.545    23126878.204    23126877.989
        25.900          22.100
 115241720.129 6  89798757.492 5  21929754.280    21929753.078    21929753.788
        40.000          35.100
 131293728.172 4 102306813.742 2  24984356.669    24984355.307    24984356.028
        24.900          15.100
 128155909.305 3  99861747.720 3  24387257.872    24387258.250    24387258.344
        22.100          19.300
 119095037.223 6  92801330.647 5  22663033.019    22663032.695    22663032.560
        37.000          34.000
 108566049.070 7  84596912.160 7  20659436.036    20659435.532    20659435.692
        47.000          42.000
 122933680.304 5  95792476.271 5  23393503.371    23393503.095    23393503.203
        31.000          31.000
 108264714.319 8  84362136.169 7  20602073.169    20602069.600    20602072.042
        48.000          47.000
 11  1  1  0  5 30.0000000  0  9G18G21G14G19G12G27G09G15G22
 107359396.475 7  83656679.687 8  20429803.346    20429801.625    20429802.814
        44.000          48.000
 121638756.151 4  94783438.963 3  23147092.381    23147091.422    23147091.828
        28.100          22.100
 115176140.574 6  89747656.572 5  21917274.350    21917273.524    21917274.002
        39.000          35.100
 131335029.035 3 102338996.253 2  24992216.670    24992214.844    24992215.314
        23.800          15.100
 128070455.992 3  99795160.798 3  24370997.113    24370997.524    24370996.897
        23.000          22.100
 119168330.423 6  92858442.242 5  22676980.248    22676980.015    22676979.749
        37.000          35.100
 108599061.500 7  84622636.138 7  20665718.317    20665717.473    20665717.893
        47.000          42.000
 123023166.055 5  95862205.418 5  23410531.652    23410531.380    23410531.960
        32.000          30.100
 108226523.551 8  84332377.128 7  20594805.567    20594802.108    20594804.479
        48.000          47.000
 11  1  1  0  6  0.0000000  0  9G18G21G14G19G12G27G09G15G22
 107381009.468 7  83673520.977 8  20433916.484    20433914.418    20433915.741
        44.000          48.000
 121745174.494 4  94866362.298 3  23167343.615    23167341.856    23167342.605
        28.100          21.100
 115110816.127 6  89696754.414 5  21904843.800    21904842.693    21904843.398
        39.000          35.100
 131376757.465 3 102371511.930 2  25000156.894    25000154.861    25000155.451
        23.800          13.900
 127985189.633 3  99728719.527 3  24354771.714    24354771.452    24354771.280
        23.000          23.000
 119241950.216 6  92915808.317 5  22690989.384    22690989.361    22690989.017
        36.000          35.100
 108632723.223 7  84648866.058 7  20672123.682    20672123.011    20672123.291
        47.000          42.000
 123112733.441 5  95931998.187 5  23427575.285    23427575.071    23427575.920
        31.000          30.100
 108188685.386 8  84302892.843 7  20587605.077    20587601.755    20587604.058
        48.000          47.000
 11  1  1  0  6 30.0000000  0  9G18G21G14G19G12G27G09G15G22
 107403035.478 7  83690684.100 8  20438107.475    20438105.824    20438107.023
        44.000          48.000
 121851787.002 4  94949436.934 3  23187630.452    23187629.645    23187629.847
        27.100          21.100
 115045747.275 6  89646051.433 5  21892461.589    21892460.599    21892461.132
        39.000          35.100
 131418911.184 3 102404358.970 2  25008178.837    25008176.091    25008177.624
        23.800          16.100
 127900113.224 3  99662426.329 3  24338581.391    24338582.248    24338580.999
        19.300          23.800
 119315894.428 6  92973427.189 5  22705060.489    22705060.350    22705060.022
        36.000          34.000
 108667032.847 7  84675600.833 7  20678652.577    20678651.921    20678652.220
        47.000          42.000
 123202381.236 5  96001853.598 5  23444635.294    23444634.783    23444635.295
        31.000          31.000
 108151201.492 8  84273684.612 7  20580472.254    20580468.815    20580471.170
        48.000          47.000
 11  1  1  0  7  0.0000000  0  9G18G21G14G19G12G27G09G15G22
 107425474.749 7  83708169.239 8  20442377.625    20442375.973    20442377.114
        44.000          48.000
 121958590.638 4  95032660.456 3  23207954.978    23207954.169    23207954.359
        28.100          23.000
 114980934.414 6  89595547.928 5  21880128.119    21880127.133    21880127.574
        39.000          35.100
 131461488.089 3 102437535.798 2  25016281.177    25016277.783    25016279.559
        23.800          13.900
 127815230.361 3  99596283.901 3  24322428.479    24322429.211    24322428.997
        23.000          23.000
 119390160.728 6  93031297.039 5  22719192.699    22719193.026    22719192.439
        36.000          35.100
 108701988.592 7  84702839.082 7  20685304.402    20685303.813    20685304.084
        47.000          42.000
 123292108.450 5  96071770.901 5  23461710.259    23461709.488    23461710.214
        31.000          30.100
 108114073.221 8  84244753.492 7  20573406.858    20573403.611    20573405.958
        48.000          47.000
 11  1  1  0  7 30.0000000  0  9G18G21G14G19G12G27G09G15G22
 107448327.465 7  83725976.550 8  20446726.523    20446724.621    20446725.872
        44.000          48.000
 122065583.155 4  95116031.243 3  23228314.514    23228314.310    23228314.139
        28.100          22.100
 114916377.834 6  89545244.110 5  21867843.223    21867842.424    21867842.784
        39.000          35.100
 131504486.076 4 102471040.694 2  25024463.669    25024460.389    25024462.203
        24.900          13.900
 127730543.995 4  99530294.605 3  24306313.656    24306313.530    24306313.233
        24.900          23.000
 119464746.704 6  93089415.981 5  22733386.041    22733385.951    22733385.768
        36.000          34.000
 108737588.676 7  84730579.408 7  20692078.904    20692078.276    20692078.502
        47.000          42.000
 123381914.023 5  96141749.288 4  23478799.771    23478798.613    23478799.698
        31.000          29.000
 108077302.095 8  84216100.661 8  20566409.723    20566406.341    20566408.584
        48.000          48.000
 11  1  1  0  8  0.0000000  0  9G18G21G14G19G12G27G09G15G22
 107471594.073 7  83744106.370 7  20451153.610    20451152.055    20451153.241
        44.000          47.000
 122172761.259 4  95199546.729 3  23248709.284    23248709.645    23248708.947
        27.100          23.000
 114852077.736 6  89495140.156 5  21855607.356    21855606.325    21855607.048
        40.000          35.100
 131547903.043 4 102504872.081 2  25032725.106    25032722.420    25032723.925
        24.900          17.800
 127646057.459 3  99464460.999 4  24290235.923    24290236.474    24290236.018
        23.000          24.900
 119539649.927 6  93147782.134 5  22747639.870    22747639.592    22747639.440
        36.000          34.000
 108773831.885 7  84758820.875 7  20698975.695    20698975.125    20698975.356
        47.000          42.000
 123471796.893 5  96211787.897 4  23495903.819    23495902.761    23495903.859
        31.000          29.000
 108040889.393 8  84187727.127 8  20559480.572    20559477.298    20559479.453
        48.000          48.000
 11  1  1  0  8 30.0000000  0  9G18G21G14G19G12G27G09G15G22
 107495275.042 7  83762559.070 7  20455660.202    20455658.482    20455659.572
        44.000          47.000
 122280121.670 4  95283204.206 3  23269139.705    23269139.477    23269139.644
        29.000          23.000
 114788034.494 6  89445236.357 6  21843420.166    21843419.403    21843419.859
        39.000          36.000
 131591736.706 3 102539028.165 3  25041066.251    25041064.450    25041064.703
        22.100          19.300
 127561773.703 3  99398785.429 3  24274197.487    24274197.772    24274197.443
        23.800          23.800
 119614868.267 6  93206393.833 5  22761953.151    22761953.272    22761952.967
        36.000          34.000
 108810716.231 7  84787561.933 7  20705994.484    20705994.007    20705994.231
        47.000          42.000
 123561756.219 5  96281886.065 5  23513021.581    23513021.811    23513022.131
        31.000          30.100
 108004836.742 8  84159634.153 8  20552619.967    20552616.714    20552618.903
        48.000          48.000
 11  1  1  0  9  0.0000000  0  9G18G21G14G19G12G27G09G15G22
 107519370.614 7  83781334.829 7  20460245.361    20460243.718    20460244.791
        44.000          47.000
 122387661.783 4  95367001.629 3  23289603.893    23289604.022    23289603.714
        28.100          23.800
 114724248.473 6  89395532.978 6  21831282.450    21831281.308    21831281.856
        39.000          36.000
 131635984.862 4 102573507.226 3  25049486.597    25049484.286    25049485.593
        24.900          19.300
 127477696.157 3  99333270.521 3  24258198.799    24258198.409    24258198.407
        23.000          23.000
 119690399.338 6  93265249.216 5  22776326.500    22776326.295    22776326.045
        36.000          34.000
 108848240.113 7  84816801.328 7  20713135.122    20713134.459    20713134.824
        47.000          42.000
 123651790.791 5  96352042.870 5  23530154.878    23530154.661    23530155.180
        31.000          30.100
 107969145.284 8  84131822.625 8  20545828.141    20545824.769    20545827.053
        48.000          48.000
 11  1  1  0  9 30.0000000  0  9G18G21G14G19G12G27G09G15G22
 107543880.986 7  83800433.819 7  20464909.552    20464907.853    20464909.038
        45.000          47.000
 122495378.869 4  95450936.938 3  23310102.987    23310102.987    23310102.033
        27.100          23.000
 114660720.238 6  89346030.478 5  21819193.212    21819192.140    21819192.956
        40.000          35.100
 131680645.412 3 102608307.667 3  25057984.859    25057983.304    25057983.919
        23.000          19.300
 127393828.123 3  99267918.888 3  24242237.708    24242238.665    24242237.881
        22.100          21.100
 119766240.730 6  93324346.401 5  22790758.726    22790758.436    22790758.250
        36.000          33.000
 108886401.258 7  84846537.285 7  20720396.946    20720396.362    20720396.569
        47.000          42.000
 123741899.487 5  96422257.440 4  23547302.654    23547301.559    23547302.301
        31.000          29.000
 107933816.635 8  84104293.810 8  20539105.351    20539101.919    20539104.217
        48.000          48.000
 11  1  1  0 10  0.0000000  0  9G18G21G14G19G12G27G09G15G22
 107568806.635 7  83819856.379 7  20469652.792    20469651.089    20469652.260
        44.000          47.000
 122603270.081 4  95535007.955 3  23330633.006    23330632.789    23330632.890
        25.900          23.000
 114597450.044 6  89296729.037 5  21807153.331    21807152.046    21807152.988
        40.000          35.100
 131725716.403 3 102643427.901 2  25066562.526    25066559.471    25066561.191
        23.000          17.800
 127310172.595 3  99202732.825 3  24226319.802    24226319.734    24226319.167
        22.100          22.100
 119842390.269 6  93383683.707 5  22805249.515    22805249.341    22805248.995
        36.000          34.000
 108925198.249 7  84876768.705 6  20727779.926    20727779.132    20727779.491
        47.000          41.000
 123832081.563 5  96492529.184 4  23564463.128    23564462.215    23564463.235
        30.100          28.100
 107898852.187 8  84077048.784 8  20532451.835    20532448.345    20532450.728
        48.000          48.000
 11  1  1  0 10 30.0000000  0  9G18G21G14G19G12G27G09G15G22
 107594147.838 7  83839602.771 7  20474475.043    20474473.329    20474474.513
        44.000          47.000
 122711332.510 4  95619212.339 3  23351196.887    23351196.842    23351196.466
        25.900          22.100
 114534437.998 6  89247628.757 5  21795162.483    21795161.376    21795162.121
        40.000          35.100
 131771195.504 3 102678866.173 2  25075216.178    25075214.455    25075215.462
        23.000          17.800
 127226732.888 4  99137714.927 3  24210441.043    24210440.790    24210441.390
        25.900          19.300
 119918845.794 6  93443259.446 5  22819798.166    22819798.429    22819798.004
        36.000          33.000
 108964629.496 7  84907494.364 6  20735283.244    20735282.647    20735282.953
        47.000          41.000
 123922335.890 4  96562857.233 4  23581638.262    23581637.439    23581637.848
        29.000          28.100
 107864253.398 8  84050088.692 8  20525867.877    20525864.322    20525866.879
        48.000          48.000
 11  1  1  0 11  0.0000000  0  9G18G21G14G19G12G27G09G15G22
 107619904.899 7  83859673.215 7  20479376.396    20479374.654    20479375.933
        44.000          47.000
 122819563.393 4  95703547.964 2  23371792.935    23371791.839    23371792.316
        27.100          17.800
 114471684.597 6  89198730.017 6  21783221.126    21783219.906    21783220.710
        40.000          36.000
 131817080.471 3 102714620.668 2  25083946.677    25083945.586    25083946.290
        19.300          17.000
 127143512.226 3  99072867.699 3  24194605.995    24194604.598    24194605.130
        23.800          22.100
 119995604.861 6  93503071.709 5  22834404.975    22834405.350    22834404.757
        36.000          34.000
 109004692.990 7  84938712.671 6  20742907.287    20742906.529    20742906.928
        47.000          41.000
 124012661.484 5  96633240.810 4  23598827.170    23598826.289    23598827.010
        31.000          29.000
 107830021.607 8  84023414.570 8  20519353.992    20519350.223    20519352.832
        48.000          48.000
 11  1  1  0 11 30.0000000  0  9G18G21G14G19G12G27G09G15G22
 107646078.167 7  83880067.977 7  20484357.268    20484355.291    20484356.560
        44.000          47.000
 122927960.010 4  95788012.801 3  23392420.474    23392419.371    23392419.806
        27.100          19.300
 114409190.227 6  89150033.112 6  21771328.639    21771327.562    21771328.227
        40.000          36.000
 131863369.073 2 102750689.700 2  25092756.284    25092753.725    25092753.925
        16.100          17.000
 127060513.662 4  99008193.557 3  24178811.590    24178810.168    24178811.209
        27.100          19.300
 120072665.349 6  93563118.843 5  22849069.346    22849069.330    22849068.935
        36.000          34.000
 109045386.639 7  84970422.009 6  20750650.881    20750650.155    20750650.513
        47.000          41.000
 124103057.051 5  96703678.883 4  23616028.729    23616027.699    23616028.675
        30.100          27.100
 107796158.111 8  83997027.432 8  20512909.968    20512906.316    20512908.827
        48.000          48.000
 11  1  1  0 12  0.0000000  0  9G18G21G14G19G12G27G09G15G22
 107672667.887 7  83900787.236 7  20489416.801    20489415.217    20489416.318
        45.000          47.000
 123036519.169 4  95872604.280 3  23413078.359    23413077.517    23413078.335
        27.100          19.300
 114346955.050 6  89101538.190 6  21759485.555    21759484.724    21759485.170
        40.000          37.000
 131910058.813 3 102787071.276 3  25101640.492    25101639.295    25101640.097
        19.300          21.100
 126977740.500 4  98943695.022 3  24163060.513    24163059.083    24163060.341
        29.000          22.100
 120150024.841 5  93623398.972 5  22863790.361    22863789.945    22863789.966
        35.100          34.000
 109086708.922 7  85002621.196 6  20758514.284    20758513.685    20758513.962
        46.000          41.000
 124193521.875 4  96774170.945 4  23633243.238    23633242.332    23633243.488
        29.000          27.100
 107762664.398 8  83970928.439 8  20506536.202    20506532.730    20506535.125
        48.000          48.000
 11  1  1  0 12 30.0000000  0  9G18G21G14G19G12G27G09G15G22
 107699674.064 7  83921830.998 7  20494555.997    20494554.331    20494555.509
        45.000          47.000
 123145238.292 4  95957320.386 3  23433767.465    23433766.593    23433766.617
        25.900          23.000
 114284979.495 6  89053245.568 6  21747692.341    21747691.242    21747691.752
        40.000          37.000
 131957147.763 2 102823763.937 3  25110602.677    25110599.619    25110601.370
        16.100          19.300
 126895195.906 4  98879374.620 3  24147352.048    24147351.679    24147351.988
        24.900          23.000
 120227680.906 5  93683910.200 5  22878567.807    22878567.569    22878567.461
        35.100          33.000
 109128657.918 7  85035308.727 6  20766496.886    20766496.362    20766496.531
        46.000          41.000
 124284054.911 5  96844716.163 4  23650471.868    23650469.977    23650471.755
        31.000          25.900
 107729541.989 8  83945118.771 8  20500232.974    20500229.749    20500231.941
        48.000          48.000
 11  1  1  0 13  0.0000000  0  9G18G21G14G19G12G27G09G15G22
 107727097.333 7  83943199.782 7  20499774.423    20499772.858    20499773.889
        45.000          47.000
 123254114.570 4  96042159.069 3  23454485.250    23454484.560    23454484.619
        25.900          19.900
 114223263.817 6  89005155.440 6  21735948.191    21735946.790    21735947.607
        40.000          36.000
 132004633.763 2 102860765.978 3  25119639.053    25119636.135    25119637.909
        17.000          19.900
 126812883.141 3  98815234.878 3  24131687.710    24131687.798    24131687.785
        23.000          23.000
 120305631.002 5  93744650.530 5  22893400.996    22893400.682    22893400.770
        35.100          32.000
 109171231.687 7  85068483.094 6  20774598.502    20774597.752    20774598.051
        47.000          41.000
 124374655.117 5  96915313.734 4  23667712.318    23667710.983    23667712.016
        30.100          28.100
 107696792.177 8  83919599.439 8  20494000.918    20493997.725    20493999.815
        48.000          48.000
 11  1  1  0 13 30.0000000  0  9G18G21G14G19G12G27G09G15G22
 107754937.954 7  83964893.778 7  20505072.254    20505070.730    20505071.752
        44.000          47.000
 123363144.850 4  96127117.652 3  23475233.221    23475233.221    23475232.690
        27.100          19.900
 114161808.351 6  88957268.082 6  21724253.183    21724252.188    21724252.774
        40.000          36.000
 132052514.341 3 102898075.493 3  25128749.531    25128747.720    25128747.741
        19.300          19.900
 126730805.235 3  98751278.127 3  24116069.608    24116069.182    24116068.617
        22.100          23.800
 120383872.926 5  93805618.270 5  22908289.971    22908289.794    22908289.670
        35.100          33.000
 109214428.218 7  85102142.734 6  20782818.361    20782817.828    20782817.945
        46.000          41.000
 124465321.746 5  96985963.029 5  23684965.133    23684965.133    23684965.284
        30.100          30.100
 107664416.382 8  83894371.548 8  20487840.023    20487836.769    20487838.991
        48.000          48.000
 11  1  1  0 14  0.0000000  0  9G18G21G14G19G12G27G09G15G22
 107783195.699 7  83986912.803 7  20510449.663    20510447.938    20510449.145
        45.000          47.000
 123472326.459 4  96212194.159 2  23496009.165    23496009.136    23496009.020
        24.900          17.800
 114100613.390 6  88909583.711 6  21712608.578    21712607.158    21712608.029
        41.000          36.000
 132100787.024 3 102935690.578 3  25137934.509    25137933.279    25137934.385
        19.900          19.900
 126648965.500 3  98687506.951 3  24100494.652    24100495.433    24100495.239
        23.000          23.000
 120462404.620 5  93866811.794 5  22923233.789    22923234.021    22923233.740
        35.100          33.000
 109258245.375 7  85136285.978 6  20791156.348    20791156.012    20791156.105
        46.000          41.000
 124556053.595 5  97056663.151 4  23702231.400    23702229.812    23702231.211
        31.000          29.000
 107632415.943 8  83869436.142 8  20481750.495    20481747.264    20481749.428
        48.000          49.000
 11  1  1  0 14 30.0000000  0  9G18G21G14G19G12G27G09G15G22
 107811871.100 7  84009257.275 7  20515906.504    20515904.630    20515905.943
        45.000          46.000
 123581656.336 4  96297386.211 3  23516814.766    23516814.187    23516813.829
        24.900          19.900
 114039679.265 6  88862102.594 6  21701012.874    21701011.981    21701012.427
        41.000          37.000
 132149449.789 3 102973609.603 2  25147195.821    25147193.087    25147194.925
        21.100          17.000
 126567367.020 3  98623923.807 3  24084967.870    24084967.883    24084967.530
        23.000          23.800
 120541223.597 5  93928229.175 5  22938232.859    22938232.911    22938232.573
        35.100          33.000
 109302681.315 7  85170911.390 6  20799612.347    20799611.743    20799611.966
        46.000          41.000
 124646849.882 5  97127413.523 4  23719509.122    23719507.765    23719509.262
        31.000          28.100
 107600792.264 8  83844794.314 8  20475732.640    20475729.457    20475731.591
        48.000          49.000
 11  1  1  0 15  0.0000000  0  9G18G21G14G19G12G27G09G15G22
 107840964.425 7  84031927.404 7  20521442.554    20521440.883    20521442.073
        45.000          46.000
 123691131.789 3  96382691.728 2  23537647.450    23537646.017    23537646.491
        23.800          17.800
 113979006.372 6  88814825.027 6  21689466.860    21689466.252    21689466.528
        41.000          37.000
 132198500.205 3 103011830.702 3  25156529.608    25156526.926    25156528.489
        21.100          19.300
 126486013.274 3  98560531.309 3  24069485.990    24069486.383    24069486.448
        23.800          22.100
 120620327.424 5  93989868.520 5  22953286.148    22953285.821    22953285.742
        35.100          33.000
 109347733.974 7  85206017.356 6  20808185.719    20808184.917    20808185.280
        46.000          41.000
 124737709.455 5  97198213.198 4  23736799.079    23736797.988    23736798.879
        30.100          28.100
 107569546.763 8  83820447.169 8  20469786.929    20469783.602    20469785.885
        48.000          49.000
 11  1  1  0 15 30.0000000  0  9G18G21G14G19G12G27G09G15G22
 107870475.702 7  84054923.198 7  20527058.631    20527056.695    20527057.976
        45.000          46.000
 123800750.000 4  96468108.456 3  23558506.413    23558506.887    23558505.903
        24.900          22.100
 113918595.104 6  88767751.321 6  21677971.093    21677970.235    21677970.778
        41.000          37.000
 132247935.898 3 103050352.017 3  25165936.747    25165935.077    25165935.771
        21.100          19.300
 126404907.248 4  98497331.858 3  24054052.869    24054052.069    24054052.669
        24.900          22.100
 120699713.906 5  94051728.120 5  22968392.537    22968392.535    22968392.257
        35.100          33.000
 109393401.508 7  85241602.447 6  20816875.867    20816875.177    20816875.493
        46.000          41.000
 124828631.459 5  97269061.489 4  23754100.841    23754100.131    23754100.794
        30.100          29.000
 107538680.671 8  83796395.666 8  20463913.444    20463909.977    20463912.261
        48.000          49.000
 11  1  1  0 16  0.0000000  0  9G18G21G14G19G12G27G09G15G22
 107900405.184 7  84078244.874 7  20532754.055    20532752.161    20532753.348
        45.000          46.000
 123910508.150 4  96553634.183 3  23579392.652    23579393.223    23579392.447
        24.900          22.100
 113858445.369 6  88720881.417 6  21666525.512    21666524.253    21666524.828
        41.000          37.000
 132297754.615 3 103089171.772 3  25175417.781    25175415.105    25175416.011
        19.300          19.300
 126324052.090 4  98434327.876 4  24038666.716    24038666.192    24038666.431
        24.900          24.900
 120779380.631 5  94113806.086 5  22983552.409    22983552.571    22983552.170
        35.100          33.000
 109439682.010 7  85277665.180 6  20825682.714    20825682.153    20825682.317
        46.000          41.000
 124919614.748 5  97339957.543 4  23771414.080    23771413.806    23771414.567
        30.100          29.000
 107508195.583 8  83772641.048 8  20458112.223    20458108.901    20458111.169
        48.000          49.000
 11  1  1  0 16 30.0000000  0  9G18G21G14G19G12G27G09G15G22
 107930752.949 7  84101892.489 7  20538528.891    20538527.145    20538528.345
        45.000          46.000
 124020403.360 4  96639266.808 3  23600304.906    23600305.234    23600304.812
        24.900          19.300
 113798557.730 6  88674215.750 6  21655129.226    21655128.040    21655128.849
        41.000          37.000
 132347953.796 3 103128287.971 3  25184969.474    25184967.562    25184968.367
        21.100          19.300
 126243450.862 4  98371521.769 4  24023329.101    24023328.402    24023328.495
        27.100          24.900
 120859325.353 5  94176100.673 5  22998765.856    22998765.447    22998765.323
        34.000          33.000
 109486573.120 7  85314203.711 6  20834605.651    20834605.275    20834605.317
        46.000          41.000
 125010658.605 5  97410900.786 4  23788739.801    23788738.675    23788739.639
        30.100          28.100
 107478092.862 8  83749184.385 8  20452383.973    20452380.607    20452382.871
        49.000          49.000
 11  1  1  0 17  0.0000000  0  9G18G21G14G19G12G27G09G15G22
 107961519.425 7  84125866.362 7  20544383.562    20544381.818    20544382.906
        44.000          46.000
 124130432.796 3  96725004.017 3  23621244.134    23621243.547    23621242.947
        23.000          19.900
 113738932.364 7  88627754.436 6  21643782.922    21643781.548    21643782.341
        42.000          37.000
 132398530.792 3 103167698.605 3  25194595.149    25194592.036    25194593.495
        21.100          21.100
 126163107.061 3  98308916.287 4  24008039.292    24008039.103    24008039.080
        23.800          25.900
 120939545.901 5  94238610.200 5  23014031.683    23014030.849    23014031.056
        35.100          32.000
 109534072.960 7  85351216.575 6  20843644.874    20843644.093    20843644.465
        46.000          41.000
 125101762.039 4  97481890.462 4  23806075.920    23806074.993    23806075.870
        29.000          28.100
 107448373.945 8  83726026.791 8  20446728.521    20446725.289    20446727.490
        49.000          49.000
 11  1  1  0 17 30.0000000  0  9G18G21G14G19G12G27G09G15G22
 107992704.728 7  84150166.600 7  20550317.717    20550316.198    20550317.276
        45.000          46.000
 124240593.371 4  96810843.435 2  23642206.030    23642205.644    23642205.796
        24.900          16.100
 113679569.655 6  88581497.788 6  21632486.367    21632485.090    21632485.995
        41.000          37.000
 132449483.946 3 103207402.331 3  25204291.099    25204288.164    25204289.148
        22.100          19.300
 126083023.441 4  98246513.523 4  23992799.571    23992800.029    23992799.951
        25.900          25.900
 121020039.854 5  94301332.761 5  23029348.976    23029348.526    23029348.519
        35.100          33.000
 109582179.370 7  85388702.092 6  20852799.147    20852798.469    20852798.747
        46.000          40.000
 125192924.320 5  97552925.979 4  23823423.794    23823422.828    23823423.786
        30.100          28.100
 107419039.905 8  83703169.095 8  20441146.381    20441143.120    20441145.411
        49.000          49.000
 11  1  1  0 18  0.0000000  0  9G18G21G14G19G12G27G09G15G22
 108024308.872 7  84174793.208 7  20556332.043    20556330.178    20556331.427
        44.000          45.000
 124350882.125 3  96896782.601 3  23663193.605    23663193.315    23663193.082
        23.000          19.300
 113620469.209 7  88535445.499 6  21621239.932    21621238.778    21621239.469
        42.000          37.000
 132500810.834 3 103247397.292 2  25214057.561    25214055.386    25214056.785
        22.100          17.800
 126003203.546 4  98184316.239 4  23977611.712    23977610.544    23977611.208
        28.100          25.900
 121100804.954 5  94364266.612 5  23044717.923    23044717.632    23044717.652
        35.100          32.000
 109630889.983 7  85426658.415 6  20862068.363    20862067.696    20862068.020
        46.000          41.000
 125284144.443 4  97624006.573 4  23840782.646    23840781.601    23840782.644
        29.000          28.100
 107390092.348 8  83680612.560 8  20435637.955    20435634.576    20435636.895
        49.000          49.000
 11  1  1  0 18 30.0000000  0  9G18G21G14G19G12G27G09G15G22
 108056331.926 7  84199746.254 7  20562425.825    20562423.919    20562425.200
        45.000          46.000
 124461296.595 3  96982819.772 2  23684205.009    23684204.351    23684204.105
        23.000          15.100
 113561632.484 6  88489598.714 6  21610043.786    21610042.439    21610043.215
        41.000          37.000
 132552508.762 3 103287681.380 2  25223896.136    25223893.254    25223894.935
        19.300          17.800
 125923650.462 4  98122326.879 4  23962473.366    23962472.084    23962472.849
        28.100          25.900
 121181838.915 5  94427409.960 5  23060138.498    23060137.645    23060137.865
        35.100          32.000
 109680202.961 7  85465084.118 6  20871452.169    20871451.672    20871451.850
        46.000          40.000
 125375421.348 4  97695131.413 4  23858151.334    23858150.204    23858151.552
        28.100          25.900
 107361532.928 8  83658358.466 8  20430203.320    20430199.900    20430202.167
        49.000          49.000
 11  1  1  0 19  0.0000000  0  9G18G21G14G19G12G27G09G15G22
 108088774.196 7  84225025.955 7  20568599.006    20568597.458    20568598.586
        45.000          45.000
 124571833.989 4  97068952.792 2  23705239.047    23705239.255    23705238.883
        25.900          17.000
 113503059.419 6  88443957.381 6  21598897.364    21598896.359    21598897.006
        41.000          37.000
 132604574.856 3 103328252.314 2  25233804.102    25233801.136    25233802.233
        21.100          12.600
 125844367.486 4  98060547.945 3  23947385.833    23947384.917    23947385.253
        27.100          23.000
 121263139.358 5  94490760.957 5  23075609.215    23075608.745    23075608.729
        35.100          32.000
 109730115.938 7  85503977.347 6  20880950.377    20880949.825    20880950.085
        46.000          40.000
 125466754.091 4  97766299.756 4  23875531.810    23875529.993    23875531.534
        28.100          24.900
 107333362.184 8  83636407.239 8  20424842.532    20424839.184    20424841.463
        49.000          49.000
 11  1  1  0 19 30.0000000  0  9G18G21G14G19G12G27G09G15G22
 108121635.846 7  84250632.435 7  20574852.902    20574850.887    20574852.073
        45.000          45.000
 124682491.167 4  97155179.150 2  23726297.290    23726296.612    23726296.811
        27.100          16.100
 113444749.817 6  88398521.341 6  21587801.280    21587800.494    21587800.896
        41.000          38.000
 132657007.478 3 103369108.931 2  25243781.309    25243778.396    25243780.352
        21.100          13.900
 125765357.595 4  97998981.848 3  23932350.197    23932350.197    23932349.729
        24.900          23.000
 121344704.110 5  94554317.905 5  23091130.306    23091130.246    23091129.916
        35.100          32.000
 109780626.727 7  85543336.409 6  20890562.249    20890561.765    20890561.889
        45.000          40.000
 125558141.949 4  97837511.080 4  23892922.546    23892921.103    23892922.266
        27.100          24.900
 107305581.640 8  83614760.061 8  20419556.119    20419552.698    20419555.042
        49.000          49.000
 11  1  1  0 20  0.0000000  0  9G18G21G14G19G12G27G09G15G22
 108154916.714 7  84276565.569 7  20581185.563    20581184.024    20581185.232
        45.000          45.000
 124793265.520 3  97241496.831 2  23747376.501    23747376.060    23747376.317
        23.800          13.900
 113386704.224 6  88353291.026 6  21576755.651    21576754.768    21576755.298
        41.000          38.000
 132709803.953 3 103410249.002 2  25253828.088    25253825.675    25253826.348
        19.300          17.000
 125686623.843 4  97937630.911 4  23917366.629    23917367.139    23917367.236
        25.900          24.900
 121426530.786 5  94618078.951 5  23106701.393    23106701.015    23106700.944
        34.000          31.000
 109831733.164 7  85583159.610 6  20900287.676    20900287.046    20900287.218
        45.000          40.000
 125649583.950 4  97908764.565 4  23910322.841    23910322.208    23910322.587
        28.100          27.100
 107278192.830 8  83593418.131 8  20414344.092    20414340.839    20414343.092
        49.000          49.000
 11  1  1  0 20 30.0000000  0  9G18G21G14G19G12G27G09G15G22
 108188616.829 7  84302825.373 7  20587598.746    20587596.891    20587598.194
        45.000          45.000
 124904153.886 4  97327903.347 2  23768478.136    23768477.667    23768477.453
        24.900          17.000
 113328922.969 6  88308266.690 6  21565760.029    21565759.309    21565759.669
        41.000          38.000
 132762961.678 3 103451670.590 2  25263943.110    25263941.470    25263941.647
        19.300          12.600
 125608169.370 4  97876497.609 3  23902437.160    23902437.265    23902438.116
        27.100          23.000
 121508616.821 5  94682042.116 5  23122321.461    23122321.651    23122321.325
        34.000          32.000
 109883433.346 7  85623445.469 6  20910125.754    20910125.241    20910125.310
        45.000          40.000
 125741079.138 4  97980059.495 4  23927733.781    23927733.343    23927733.702
        27.100          25.900
 107251197.485 8  83572382.804 8  20409207.273    20409203.852    20409206.122
        49.000          50.000
 11  1  1  0 21  0.0000000  0  9G18G21G14G19G12G27G09G15G22
 108222736.591 7  84329412.198 7  20594091.531    20594089.754    20594090.971
        45.000          45.000
 125015153.751 3  97414396.678 2  23789600.079    23789600.108    23789599.407
        22.100          15.100
 113271406.164 6  88263448.417 6  21554815.017    21554814.223    21554814.645
        41.000          38.000
 132816478.517 2 103493372.059 1  25274126.709    25274125.304    25274126.148
        17.000          11.000
 125529997.406 4  97815584.429 3  23887561.498    23887561.578    23887561.866
        27.100          22.100
 121590959.985 5  94746205.611 5  23137990.608    23137991.056    23137990.581
        34.000          31.000
 109935724.782 7  85664192.047 6  20920076.670    20920076.039    20920076.180
        45.000          41.000
 125832626.880 4  98051395.379 4  23945154.360    23945154.442    23945154.484
        27.100          25.900
 107224596.466 8  83551654.743 8  20404145.207    20404141.794    20404144.115
        49.000          50.000
 11  1  1  0 21 30.0000000  0  9G18G21G14G19G12G27G09G15G22
 108257275.951 7  84356325.986 7  20600664.151    20600662.351    20600663.706
        45.000          45.000
 125126262.187 3  97500974.711 2  23810744.285    23810743.382    23810743.293
        23.800          17.800
 113214154.141 6  88218836.466 6  21543920.544    21543919.486    21543920.098
        41.000          38.000
 132870351.644 2 103535351.105 1  25284378.655    25284376.648    25284377.965
        12.600           9.000
 125452111.190 4  97754893.903 3  23872741.286    23872740.644    23872740.399
        24.900          23.000
 121673558.064 5  94810567.753 5  23153708.799    23153708.760    23153708.537
        33.000          31.000
 109988605.152 7  85705397.526 6  20930139.421    20930138.852    20930139.038
        45.000          40.000
 125924225.942 5  98122771.240 4  23962585.762    23962584.810    23962585.736
        30.100          25.900
 107198391.148 8  83531235.015 8  20399158.538    20399155.072    20399157.335
        49.000          50.000
 11  1  1  0 22  0.0000000  0  9G18G21G14G19G12G27G09G15G22
 108292235.105 7  84383566.894 7  20607316.838    20607314.767    20607316.199
        45.000          45.000
 125237476.269 3  97587634.969 3  23831907.723    23831907.120    23831906.921
        22.100          19.300
 113157167.191 7  88174431.068 6  21533076.284    21533075.182    21533075.948
        42.000          38.000
 132924578.594 3 103577605.806 1  25294697.482    25294695.621    25294697.322
        21.100           9.000
 125374513.931 4  97694428.550 4  23857975.929    23857974.372    23857974.960
        25.900          24.900
 121756408.715 5  94875126.713 5  23169474.829    23169474.770    23169474.531
        33.000          31.000
 110042072.164 7  85747060.143 6  20940313.680    20940313.183    20940313.244
        45.000          40.000
 126015875.481 5  98194186.451 4  23980026.541    23980025.180    23980026.564
        31.000          25.900
 107172583.000 8  83511124.770 8  20394247.228    20394243.950    20394246.247
        49.000          50.000
 11  1  1  0 22 30.0000000  0  9G18G21G14G19G12G27G09G15G22
 108327613.935 7  84411134.799 7  20614048.922    20614047.121    20614048.393
        45.000          45.000
 125348793.168 3  97674375.355 2  23853089.719    23853089.398    23853089.787
        23.800          17.800
 113100445.544 7  88130232.394 6  21522282.891    21522281.397    21522282.241
        42.000          38.000
 132979156.895 2 103620134.349 1  25305084.423    25305081.233    25305083.412
        17.000          11.000
 125297208.381 4  97634190.483 3  23843264.956    23843263.482    23843264.573
        28.100          23.800
 121839509.777 5  94939880.782 5  23185288.297    23185288.636    23185287.897
        33.000          32.000
 110096123.772 7  85789178.284 6  20950599.338    20950599.338    20950598.957
        45.000          40.000
 126107574.741 4  98265640.419 4  23997475.684    23997475.246    23997475.881
        29.000          28.100
 107147173.193 8  83491324.920 8  20389411.979    20389408.608    20389410.915
        49.000          50.000
 11  1  1  0 23  0.0000000  0  9G18G21G14G19G12G27G09G15G22
 108363412.513 7  84439029.781 7  20620861.296    20620859.458    20620860.796
        45.000          45.000
 125460210.109 3  97761193.730 2  23874292.761    23874291.480    23874291.599
        23.800          16.100
 113043989.515 7  88086240.699 6  21511539.471    21511538.169    21511538.839
        42.000          38.000
 133034084.176 3 103662934.803 1  25315535.522    25315534.409    25315535.455
        19.300           9.000
 125220197.705 4  97574182.213 4  23828609.737    23828608.984    23828609.669
        28.100          24.900
 121922858.946 5  95004828.187 5  23201148.887    23201149.252    23201148.647
        33.000          31.000
 110150757.240 7  85831749.820 6  20960995.954    20960995.218    20960995.515
        45.000          40.000
 126199323.200 4  98337132.699 4  24014934.240    24014934.566    24014934.922
        29.000          27.100
 107122163.102 8  83471836.540 8  20384652.785    20384649.296    20384651.730
        49.000          50.000
 11  1  1  0 23 30.0000000  0  9G18G21G14G19G12G27G09G15G22
 108399630.685 7  84467251.711 7  20627753.261    20627751.606    20627752.781
        45.000          45.000
 125571724.153 3  97848087.749 3  23895512.350    23895512.193    23895511.604
        22.100          19.300
 112987799.265 7  88042456.105 6  21500846.544    21500845.382    21500846.240
        42.000          38.000
 133089357.853 3 103706005.133 2  25326054.809    25326052.381    25326053.657
        23.000          12.600
 125143485.214 4  97514406.277 4  23814010.541    23814010.699    23814011.439
        28.100          24.900
 122006453.793 5  95069967.030 5  23217056.224    23217056.791    23217056.196
        33.000          31.000
 110205970.787 7  85874773.362 6  20971502.434    20971502.061    20971502.205
        45.000          40.000
 126291119.625 4  98408662.367 4  24032403.699    24032402.524    24032403.734
        29.000          27.100
 107097554.025 8  83452660.636 8  20379969.853    20379966.315    20379968.699
        49.000          50.000
 11  1  1  0 24  0.0000000  0  9G18G21G14G19G12G27G09G15G22
 108436268.799 7  84495800.886 7  20634725.393    20634723.632    20634724.981
        45.000          44.000
 125683332.622 3  97935055.377 2  23916750.260    23916750.805    23916749.973
        23.000          13.900
 112931875.085 7  87998878.835 6  21490204.472    21490203.433    21490204.231
        42.000          38.000
 133144975.314 3 103749343.413 2  25336638.096    25336636.065    25336637.141
        21.100          12.600
 125067074.150 4  97454865.216 4  23799470.015    23799470.336    23799470.415
        27.100          25.900
 122090292.047 5  95135295.538 5  23233010.628    23233010.665    23233010.204
        33.000          31.000
 110261761.721 7  85918246.819 6  20982119.465    20982118.739    20982118.933
        45.000          40.000
 126382963.192 4  98480228.766 4  24049880.814    24049879.764    24049880.904
        28.100          25.900
 107073347.110 8  83433798.109 8  20375363.458    20375359.861    20375362.366
        49.000          50.000
 11  1  1  0 24 30.0000000  0  9G18G21G14G19G12G27G09G15G22
 108473326.618 7  84524677.105 7  20641777.497    20641775.582    20641776.781
        45.000          44.000
 125795032.823 3  98022094.442 1  23938005.630    23938006.553    23938005.337
        23.000           9.000
 112876217.051 7  87955508.951 6  21479613.003    21479612.007    21479612.818
        42.000          38.000
 133200934.243 3 103792947.784 2  25347286.700    25347284.580    25347285.658
        19.300          13.900
 124990967.588 4  97395561.410 4  23784989.187    23784987.614    23784988.289
        28.100          25.900
 122174371.594 5  95200812.069 5  23249010.164    23249010.549    23249009.856
        33.000          31.000
 110318127.877 7  85962168.499 6  20992845.413    20992844.825    20992845.030
        45.000          40.000
 126474852.973 4  98551831.186 4  24067366.932    24067366.038    24067366.730
        28.100          27.100
 107049543.606 8  83415249.926 8  20370833.781    20370830.297    20370832.671
        49.000          50.000
 11  1  1  0 25  0.0000000  0  9G18G21G14G19G12G27G09G15G22
 108510804.269 7  84553880.477 7  20648908.924    20648907.300    20648908.470
        45.000          44.000
 125906821.484 3  98109202.456 2  23959277.454    23959278.541    23959277.878
        22.100          13.900
 112820825.774 7  87912346.934 6  21469072.513    21469071.265    21469072.054
        42.000          38.000
 133257232.122 3 103836816.253 1  25358000.535    25357996.783    25357998.944
        23.000          11.000
 124915168.482 4  97336497.181 4  23770565.129    23770563.920    23770564.317
        29.000          25.900
 122258690.086 5  95266514.793 5  23265055.942    23265055.920    23265055.376
        33.000          31.000
 110375066.630 7  86006536.363 6  21003680.306    21003679.961    21003680.021
        45.000          40.000
 126566788.503 4  98623469.199 4  24084861.094    24084860.919    24084861.433
        27.100          27.100
 107026144.936 8  83397017.198 8  20366381.189    20366377.728    20366380.046
        49.000          50.000
 11  1  1  0 25 30.0000000  0  9G18G21G14G19G12G27G09G15G22
 108548701.745 7  84583411.007 7  20656120.768    20656118.840    20656120.082
        45.000          44.000
 126018695.879 3  98196377.283 2  23980567.389    23980568.533    23980567.255
        19.300          17.800
 112765701.391 7  87869392.883 6  21458582.747    21458581.519    21458582.276
        42.000          38.000
 133313866.216 2 103880946.683 2  25368777.083    25368775.004    25368776.174
        17.800          15.100
 124839679.929 4  97277674.994 4  23756199.023    23756199.183    23756198.804
        27.100          28.100
 122343245.143 5  95332401.853 5  23281145.984    23281145.984    23281145.768
        33.000          30.100
 110432575.729 7  86051348.649 6  21014624.202    21014623.460    21014623.808
        45.000          40.000
 126658768.630 4  98695141.988 4  24102365.126    24102364.382    24102365.118
        28.100          28.100
 107003152.617 8  83379101.111 8  20362005.824    20362002.413    20362004.797
        50.000          50.000
 11  1  1  0 26  0.0000000  0 10G18G21G14G19G12G27G25G09G15G22
 108587018.671 7  84613268.355 7  20663412.048    20663410.255    20663411.560
        45.000          44.000
 126130653.220 3  98283616.713 2  24001872.685    24001872.822    24001872.965
        21.100          13.900
 112710843.972 7  87826646.850 6  21448143.834    21448142.565    21448143.449
        42.000          38.000
 133370833.887 3 103925337.089    25379617.245    25379615.834    25379616.565
        19.300           3.000
 124764505.162 4  97219097.281 4  23741892.576    23741893.928    23741893.558
        28.100          27.100
 122428034.368 5  95398471.395 5  23297280.527    23297281.263    23297280.515
        33.000          31.000
 132167907.814 3 102987956.681 1  25150734.397    25150737.758    25150734.274
        21.100          11.000
 110490652.756 7  86096603.479 6  21025675.648    21025675.095    21025675.398
        45.000          40.000
 126750792.098 4  98766848.568 4  24119875.991    24119875.527    24119876.390
        28.100          24.900
 106980567.377 8  83361502.226 8  20357708.090    20357704.551    20357706.957
        50.000          50.000
 11  1  1  0 26 30.0000000  0 10G18G21G14G19G12G27G25G09G15G22
 108625755.344 7  84643452.778 7  20670783.340    20670781.638    20670782.808
        45.000          44.000
 126242690.874 3  98370918.703 2  24023193.269    24023193.431    24023192.790
        21.100          17.000
 112656253.562 7  87784108.875 6  21437755.367    21437754.224    21437755.112
        42.000          38.000
 133428132.850 3 103969985.586    25390521.567    25390519.562    25390520.776
        19.900
 124689647.095 4  97160766.359 4  23727647.576    23727648.630    23727648.396
        27.100          25.900
 122513055.442 5  95464721.568 5  23313459.556    23313459.763    23313459.453
        33.000          31.000
 132068376.027 2 102910399.525 1  25131794.570    25131797.635    25131793.392
        17.000           6.500
 110549295.277 7  86142298.951 6  21036835.005    21036834.514    21036834.719
        45.000          40.000
 126842858.850 4  98838588.879 3  24137395.503    24137394.912    24137395.899
        24.900          23.000
 106958390.757 8  83344221.753 8  20353487.890    20353484.488    20353486.823
        50.000          50.000
 11  1  1  0 27  0.0000000  0 10G18G21G14G19G12G27G25G09G15G22
 108664911.532 7  84673964.091 7  20678234.523    20678232.801    20678233.902
        44.000          44.000
 126354805.794 3  98458280.847 3  24044528.486    24044528.605    24044527.788
        23.000          19.300
 112601930.779 7  87741779.438 6  21427418.303    21427417.031    21427417.861
        42.000          39.000
 133485760.427 3 104014890.204 2  25401487.613    25401485.133    25401486.579
        19.900          13.900
 124615109.024 4  97102684.748 4  23713465.586    23713464.084    23713464.820
        27.100          25.900
 122598306.195 5  95531150.732 5  23329682.720    23329682.762    23329682.209
        33.000          31.000
 131968795.094 3 102832804.084 1  25112844.036    25112848.871    25112843.582
        19.300          11.000
 110608500.852 7  86188433.171 6  21048101.625    21048100.915    21048101.237
        44.000          40.000
 126934967.958 4  98910362.205 3  24154923.598    24154922.303    24154923.513
        24.900          19.900
 106936624.184 8  83327260.790 8  20349345.969    20349342.409    20349344.845
        49.000          50.000
 11  1  1  0 27 30.0000000  0 10G18G21G14G19G12G27G25G09G15G22
 108704487.259 7  84704802.292 7  20685765.413    20685763.797    20685764.844
        45.000          44.000
 126466995.370 3  98545701.172 2  24065876.602    24065877.394    24065876.636
        23.800          16.100
 112547875.756 7  87699658.649 6  21417132.035    21417130.753    21417131.490
        42.000          39.000
 133543713.988 3 104060048.819 2  25412516.057    25412513.661    25412515.080
        22.100          13.900
 124540893.648 4  97044854.600 4  23699343.076    23699341.236    23699342.060
        28.100          24.900
 122683784.556 5  95597757.247 5  23345948.732    23345948.512    23345948.348
        32.000          30.100
 131869167.839 3 102755172.524 1  25093886.006    25093889.026    25093884.716
        19.300           9.000
 110668267.032 7  86235004.216 6  21059474.403    21059474.220    21059474.240
        44.000          39.000
 127027118.350 4  98982167.681 3  24172459.351    24172457.810    24172459.299
        25.900          23.000
 106915268.597 8  83310620.075 8  20345282.020    20345278.581    20345280.979
        50.000          50.000
 11  1  1  0 28  0.0000000  0 10G18G21G14G19G12G27G25G09G15G22
 108744482.620 7  84735967.507 7  20693376.457    20693374.734    20693375.845
        45.000          44.000
 126579256.870 3  98633177.627 2  24087241.458    24087239.590    24087239.540
        21.100          13.900
 112494088.638 7  87657746.628 6  21406896.444    21406895.395    21406896.005
        42.000          39.000
 133601990.992 2 104105459.444    25423606.538    25423603.921    25423604.041
        16.100           3.000
 124467004.319 4  96987278.547 4  23685281.694    23685280.507    23685281.312
        27.100          25.900
 122769488.013 5  95664539.150 5  23362257.618    23362257.523    23362257.251
        33.000          30.100
 131769496.935 2 102677507.012 2  25074919.295    25074922.774    25074917.814
        17.800          12.600
 110728591.442 7  86282010.254 6  21070954.257    21070953.505    21070953.841
        44.000          39.000
 127119309.348 4  99054004.808 4  24190002.737    24190001.737    24190002.761
        28.100          24.900
 106894325.363 8  83294300.679 8  20341296.691    20341293.223    20341295.558
        50.000          50.000
 11  1  1  0 28 30.0000000  0 10G18G21G14G19G12G27G25G09G15G22
 108784897.321 7  84767459.457 7  20701066.888    20701065.533    20701066.581
        45.000          44.000
 126691587.373 3  98720707.845 2  24108615.838    24108615.522    24108615.440
        21.100          13.900
 112440569.838 7  87616043.672 6  21396712.225    21396711.072    21396711.732
        42.000          39.000
 133660588.600 3 104151119.887    25434756.789    25434753.706    25434755.612
        19.300
 124393444.254 4  96929959.050 4  23671281.391    23671282.679    23671283.358
        27.100          24.900
 122855414.166 5  95731494.605 4  23378609.128    23378608.638    23378608.540
        32.000          29.000
 131669785.320 3 102599809.749 1  25055944.651    25055948.192    25055944.221
        19.900          11.000
 110789471.412 7  86329449.191 6  21082539.216    21082538.582    21082538.865
        44.000          39.000
 127211540.089 4  99125872.880 3  24207554.036    24207553.017    24207554.061
        27.100          23.000
 106873795.788 8  83278303.609 8  20337389.886    20337386.489    20337388.867
        50.000          50.000
 11  1  1  0 29  0.0000000  0 10G18G21G14G19G12G27G25G09G15G22
 108825731.117 7  84799277.998 7  20708837.849    20708836.011    20708837.063
        45.000          44.000
 126803984.157 3  98808289.711 2  24130005.659    24130004.377    24130004.530
        23.000          13.900
 112387319.601 7  87574549.991 6  21386579.104    21386577.866    21386578.641
        42.000          39.000
 133719504.469 2 104197028.342 1  25445967.650    25445965.571    25445966.430
        15.100           6.500
 124320216.005 4  96872898.103 4  23657347.333    23657347.796    23657348.665
        29.000          25.900
 122941560.796 5  95798621.853 4  23395001.893    23395001.943    23395001.407
        31.000          29.000
 131570035.832 3 102522082.968 2  25036961.629    25036966.934    25036961.958
        19.300          15.100
 110850904.663 7  86377319.264 6  21094229.405    21094228.864    21094229.095
        44.000          39.000
 127303809.891 4  99197771.406 3  24225111.461    24225111.180    24225112.034
        27.100          22.100
 106853680.986 8  83262629.739 8  20333562.347    20333558.686    20333561.212
        50.000          50.000
 11  1  1  0 29 30.0000000  0 10G18G21G14G19G12G27G25G09G15G22
 108866984.176 7  84831423.231 7  20716687.655    20716686.138    20716687.279
        45.000          44.000
 126916444.357 3  98895920.970 1  24151405.834    24151405.062    24151404.727
        19.900          11.000
 112334337.800 7  87533265.479 6  21376496.879    21376495.852    21376496.348
        42.000          39.000
 133778735.847 2 104243182.649 2  25457239.067    25457237.209    25457237.961
        17.000          12.600
 124247322.917 4  96816098.329 3  23643478.405    23643476.301    23643477.699
        28.100          23.800
 123027925.722 5  95865919.197 4  23411436.271    23411436.324    23411436.116
        32.000          29.000
 131470251.251 3 102444328.853 2  25017973.487    25017977.912    25017973.510
        19.900          15.100
 110912888.616 7  86425618.446 6  21106024.608    21106023.919    21106024.302
        44.000          39.000
 127396117.948 4  99269699.739 3  24242676.589    24242677.240    24242677.627
        25.900          21.100
 106833982.364 8  83247280.161 8  20329813.890    20329810.242    20329812.738
        50.000          50.000
 11  1  1  0 30  0.0000000  0 10G18G21G14G19G12G27G25G09G15G22
 108908656.215 7  84863894.949 7  20724617.890    20724616.078    20724617.230
        45.000          44.000
 127028965.079 2  98983599.407 2  24172818.341    24172817.078    24172817.228
        17.000          13.900
 112281624.623 7  87492190.286 6  21366466.194    21366464.891    21366465.598
        42.000          39.000
 133838280.226 1 104289580.873    25468568.988    25468567.201    25468564.703
         6.500
 124174768.073 4  96759562.087 4  23629671.319    23629669.420    23629670.306
        27.100          24.900
 123114506.764 5  95933384.949 5  23427912.274    23427912.696    23427912.077
        31.000          30.100
 131370434.449 3 102366549.636 2  24998979.003    24998983.577    24998978.841
        19.900          13.900
 110975420.747 7  86474344.783 6  21117923.982    21117923.454    21117923.661
        44.000          39.000
 127488463.446 4  99341657.291 3  24260250.019    24260249.630    24260250.971
        29.000          23.000
 106814700.915 8  83232255.654 8  20326144.737    20326141.218    20326143.681
        50.000          50.000
 11  1  1  0 30 30.0000000  0 10G18G21G14G19G12G27G25G09G15G22
 108950747.031 7  84896692.971 7  20732626.958    20732625.670    20732626.697
        45.000          43.000
 127141543.481 3  99071322.736 2  24194241.053    24194240.072    24194239.979
        21.100          16.100
 112229180.527 7  87451324.769 6  21356485.823    21356484.928    21356485.531
        42.000          39.000
 133898134.800 1 104336221.868    25479960.742    25479956.550    25479962.844
        11.000
 124102554.499 4  96703291.806 4  23615929.218    23615928.048    23615928.711
        28.100          27.100
 123201301.708 5  96001017.366 4  23444428.897    23444428.862    23444428.328
        31.000          29.000
 131270588.265 3 102288747.491 2  24979978.411    24979983.157    24979978.421
        19.300          16.100
 111038498.486 7  86523496.271 6  21129927.316    21129926.701    21129926.996
        44.000          39.000
 127580845.535 4  99413643.321 4  24277830.734    24277829.562    24277830.507
        25.900          24.900
 106795837.642 8  83217557.000 8  20322555.264    20322551.682    20322554.114
        50.000          50.000
 11  1  1  0 31  0.0000000  0 10G18G21G14G19G12G27G25G09G15G22
 108993256.689 7  84929817.368 7  20740717.132    20740715.032    20740716.228
        45.000          43.000
 127254176.820 3  99159088.888 1  24215673.410    24215673.611    24215673.144
        23.800           9.000
 112177005.830 7  87410669.167 6  21346557.678    21346556.346    21346557.278
        43.000          39.000
 133958297.255 2 104383101.635    25491408.103    25491405.933    25491404.879
        12.600
 124030685.217 5  96647289.822 4  23602252.785    23602252.051    23602252.787
        30.100          27.100
 123288308.186 5  96068814.618 4  23460986.054    23460985.265    23460985.383
        31.000          28.100
 131170715.618 3 102210924.732 2  24960972.900    24960977.720    24960973.581
        19.900          17.800
 111102119.222 7  86573070.872 6  21142034.026    21142033.434    21142033.631
        43.000          39.000
 127673263.445 3  99485657.255 4  24295415.860    24295416.777    24295415.973
        23.000          27.100
 106777394.159 8  83203185.455 8  20319045.377    20319042.007    20319044.297
        50.000          50.000
 11  1  1  0 31 30.0000000  0 10G18G21G14G19G12G27G25G09G15G22
 109036184.659 7  84963267.719 7  20748885.387    20748883.859    20748885.198
        45.000          43.000
 127366862.322 3  99246895.730 2  24237117.630    24237116.512    24237116.589
        23.800          16.100
 112125100.766 7  87370223.672 6  21336680.502    21336679.083    21336679.989
        43.000          39.000
 134018764.702 1 104430219.165    25502914.627    25502912.783    25502912.691
         9.000
 123959163.279 5  96591558.474 4  23588642.528    23588641.430    23588642.482
        31.000          27.100
 123375523.916 5  96136774.951 4  23477582.255    23477582.495    23477581.826
        31.000          29.000
 131070819.331 3 102133083.535 3  24941964.463    24941968.167    24941963.960
        22.100          19.300
 111166280.379 7  86623066.579 6  21154243.492    21154242.865    21154243.164
        43.000          39.000
 127765716.245 3  99557698.334 4  24313008.998    24313009.578    24313009.638
        23.000          27.100
 106759371.453 8  83189141.787 8  20315615.689    20315612.356    20315614.690
        50.000          50.000
 11  1  1  0 32  0.0000000  0  9G18G21G14G12G27G25G09G15G22
 109079531.207 7  84997044.237 7  20757134.603    20757132.409    20757133.789
        45.000          43.000
 127479597.274 3  99334741.063 2  24258570.150    24258569.664    24258569.286
        22.100          17.000
 112073465.411 7  87329988.333 6  21326854.608    21326853.491    21326854.129
        42.000          40.000
 123887991.432 4  96536099.912 4  23575099.117    23575097.300    23575098.966
        29.000          24.900
 123462946.556 5  96204896.473 4  23494217.731    23494218.122    23494217.172
        30.100          29.000
 130970902.231 3 102055226.125 3  24922950.843    24922954.539    24922950.403
        19.300          19.900
 111230979.705 7  86673481.643 6  21166555.079    21166554.787    21166554.777
        43.000          39.000
 127858203.566 4  99629766.326 4  24330608.881    24330609.412    24330609.836
        27.100          25.900
 106741770.708 8  83175426.920 8  20312266.582    20312262.966    20312265.438
        50.000          50.000
 11  1  1  0 32 30.0000000  0  9G18G21G14G12G27G25G09G15G22
 109123295.956 7  85031146.649 7  20765461.811    20765460.741    20765461.714
        45.000          43.000
 127592378.955 3  99422622.820 2  24280031.175    24280030.960    24280030.807
        21.100          12.600
 112022099.683 7  87289963.097 6  21317079.954    21317078.903    21317079.431
        43.000          40.000
 123817172.711 4  96480916.522 4  23561622.879    23561621.110    23561622.340
        29.000          24.900
 123550573.837 5  96273177.467 4  23510892.811    23510893.256    23510892.791
        31.000          29.000
 130870967.215 2 101977354.778 3  24903933.331    24903937.409    24903933.118
        17.000          21.100
 111296214.477 7  86724313.938 6  21178969.017    21178968.690    21178968.620
        43.000          39.000
 127950724.596 4  99701860.630 3  24348216.275    24348215.131    24348216.274
        25.900          23.800
 106724593.162 8  83162041.821 8  20308997.674    20308994.166    20308996.675
        50.000          50.000
 11  1  1  0 33  0.0000000  0  9G18G21G14G12G27G25G09G15G22
 109167478.885 7  85065574.899 7  20773870.318    20773868.351    20773869.538
        45.000          43.000
 127705204.377 3  99510538.659 1  24301501.814    24301500.802    24301500.930
        21.100           9.000
 111971004.173 7  87250148.419 6  21307356.866    21307355.652    21307356.580
        43.000          40.000
 123746710.266 5  96426010.740 4  23548214.120    23548212.924    23548214.020
        31.000          25.900
 123638403.633 5  96341616.268 4  23527606.655    23527606.316    23527606.366
        32.000          29.000
 130771017.176 3 101899471.725 3  24884913.881    24884917.433    24884913.767
        21.100          19.900
 111361981.777 7  86775561.186 6  21191484.007    21191483.733    21191483.630
        43.000          39.000
 128043278.539 3  99773980.586 3  24365827.941    24365826.884    24365828.376
        23.800          23.000
 106707840.122 8  83148987.503 8  20305809.811    20305806.179    20305808.675
        50.000          50.000
 11  1  1  0 33 30.0000000  0  9G18G21G14G12G27G25G09G15G22
 109212079.477 7  85100328.613 7  20782356.870    20782355.474    20782356.573
        45.000          42.000
 127818070.867 3  99598486.494 2  24322979.959    24322978.836    24322978.726
        19.300          12.600
 111920179.064 7  87210544.442 6  21297685.115    21297683.991    21297684.720
        43.000          40.000
 123676607.310 5  96371385.089 4  23534874.008    23534873.139    23534873.893
        30.100          29.000
 123726433.770 5  96410211.167 4  23544357.824    23544358.236    23544357.600
        31.000          29.000
 130671055.032 3 101821579.255 2  24865891.647    24865894.489    24865891.029
        21.100          17.000
 111428279.099 7  86827221.432 6  21204099.914    21204099.914    21204099.575
        43.000          39.000
 128135864.521 3  99846125.488 3  24383446.011    24383445.932    24383446.514
        21.100          23.800
 106691512.606 8  83136264.767 8  20302702.704    20302699.181    20302701.658
        50.000          50.000
 11  1  1  0 34  0.0000000  0  9G18G21G14G12G27G25G09G15G22
 109257097.563 7  85135407.635 7  20790924.196    20790922.139    20790923.456
        45.000          42.000
 127930975.661 2  99686464.156 1  24344463.517    24344464.117    24344464.357
        16.100          11.000
 111869624.476 7  87171151.259 6  21288064.915    21288063.754    21288064.483
        43.000          40.000
 123606866.450 4  96317041.602 4  23521602.542    23521601.506    23521602.207
        28.100          28.100
 123814661.892 5  96478960.368 4  23561147.707    23561147.261    23561147.190
        31.000          29.000
 130571083.662 3 101743679.552 2  24846867.101    24846870.486    24846866.920
        21.100          13.900
 111495104.261 7  86879292.989 6  21216816.205    21216816.205    21216815.983
        43.000          38.000
 128228481.826 3  99918294.764 4  24401070.123    24401070.823    24401070.779
        22.100          24.900
 106675611.635 8  83123874.400 8  20299677.087    20299673.359    20299675.898
        50.000          51.000
 11  1  1  0 34 30.0000000  0  9G18G21G14G12G27G25G09G15G22
 109302532.918 7  85170811.813 7  20799569.886    20799568.259    20799569.345
        45.000          42.000
 128043916.087 2  99774469.582 2  24365958.221    24365956.293    24365956.264
        17.000          13.900
 111819340.755 7  87131969.149 6  21278496.264    21278495.090    21278495.868
        43.000          40.000
 123537490.729 4  96262982.661 4  23508400.909    23508399.588    23508400.650
        27.100          28.100
 123903085.829 5  96547862.136 4  23577974.160    23577973.438    23577973.682
        32.000          28.100
 130471105.990 3 101665774.920 2  24827842.846    24827844.835    24827842.022
        19.300          12.600
 111562454.343 7  86931773.579 6  21229632.793    21229632.197    21229632.481
        43.000          38.000
 128321129.605 4  99990487.773 4  24418702.239    24418701.490    24418701.998
        25.900          24.900
 106660138.487 8  83111817.405 8  20296732.409    20296728.955    20296731.340
        50.000          50.000
 11  1  1  0 35  0.0000000  0  9G18G21G14G12G27G25G09G15G22
 109348385.107 7  85206540.787 7  20808295.551    20808293.669    20808294.864
        45.000          42.000
 128156889.432 2  99862500.678 2  24387454.887    24387454.579    24387453.879
        17.800          12.600
 111769327.958 7  87092998.148 6  21268979.193    21268977.947    21268978.724
        43.000          40.000
 123468482.775 4  96209210.278 4  23495269.108    23495268.192    23495268.987
        29.000          28.100
 123991703.443 4  96616914.838 4  23594837.212    23594836.875    23594836.817
        29.000          27.100
 130371124.841 3 101587867.605 2  24808816.222    24808819.508    24808816.197
        22.100          16.100
 111630326.358 7  86984660.869 6  21242548.309    21242547.863    21242548.038
        43.000          38.000
 128413807.302 4 100062704.129 3  24436337.422    24436337.455    24436337.939
        27.100          23.000
 106645093.997 8  83100094.427 8  20293869.486    20293866.018    20293868.369
        50.000          51.000
 11  1  1  0 35 30.0000000  0  9G18G21G14G12G27G25G09G15G22
 109394654.352 7  85242594.753 7  20817099.850    20817098.365    20817099.401
        45.000          42.000
 128269892.820 3  99950555.254 1  24408957.557    24408957.848    24408957.712
        19.900          11.000
 111719586.189 7  87054238.334 6  21259513.374    21259512.556    21259513.034
        43.000          40.000
 123399846.089 4  96155727.174 4  23482207.717    23482206.862    23482207.474
        29.000          28.100
 124080512.497 5  96686116.681 4  23611737.736    23611736.971    23611737.093
        31.000          28.100
 130271143.188 3 101509959.890 2  24789790.679    24789793.909    24789790.230
        23.800          15.100
 111698717.863 7  87037952.956 6  21255562.906    21255562.271    21255562.614
        43.000          38.000
 128506514.124 3 100134943.178 3  24453978.890    24453978.419    24453978.979
        23.000          19.900
 106630479.581 8  83088706.569 8  20291088.251    20291084.949    20291087.235
        50.000          50.000
 11  1  1  0 36  0.0000000  0  9G18G21G14G12G27G25G09G15G22
 109441340.290 7  85278973.398 7  20825984.139    20825982.436    20825983.541
        45.000          42.000
 128382923.489 3 100038631.028 1  24430467.859    24430467.371    24430466.858
        19.300          11.000
 111670115.836 7  87015690.019 6  21250099.538    21250098.529    21250099.077
        43.000          40.000
 123331583.565 4  96102535.628 4  23469217.542    23469217.002    23469217.365
        29.000          28.100
 124169510.527 5  96755465.808 4  23628672.858    23628672.796    23628672.479
        30.100          29.000
 130171164.009 3 101432054.119 2  24770765.239    24770768.569    24770764.534
        23.000          13.900
 111767626.183 7  87091647.748 6  21268675.642    21268675.133    21268675.331
        43.000          38.000
 128599249.637 3 100207204.594 3  24471625.552    24471625.588    24471625.806
        23.800          19.900
 106616296.410 8  83077654.747 8  20288389.437    20288385.978    20288388.333
        50.000          51.000
 11  1  1  0 36 30.0000000  0  9G18G21G14G12G27G25G09G15G22
 109488442.454 7  85315676.390 7  20834947.143    20834945.675    20834946.815
        45.000          42.000
 128495978.548 2 100126725.811    24451981.652    24451981.258    24451980.847
        16.100
 111620916.875 7  86977353.174 6  21240737.447    21240736.176    21240737.030
        43.000          40.000
 123263697.886 4  96049637.718 4  23456299.693    23456298.403    23456299.066
        28.100          28.100
 124258695.578 4  96824960.633 4  23645644.009    23645644.198    23645643.586
        29.000          27.100
 130071190.152 3 101354152.477 2  24751740.339    24751744.673    24751740.326
        23.000          17.000
 111837048.769 7  87145743.275 6  21281886.320    21281885.783    21281886.079
        43.000          38.000
 128692012.731 3 100279487.491 3  24489277.845    24489277.710    24489278.171
        23.000          21.100
 106602545.588 8  83066939.825 8  20285772.855    20285769.261    20285771.734
        50.000          51.000
 11  1  1  0 37  0.0000000  0  9G18G21G14G12G27G25G09G15G22
 109535960.495 7  85352703.427 7  20843989.938    20843988.036    20843989.321
        45.000          42.000
 128609055.494 2 100214837.659    24473498.748    24473499.095    24473497.674
        16.100
 111571989.637 7  86939228.067 6  21231426.738    21231425.529    21231426.404
        43.000          40.000
 123196191.870 4  95997035.652 4  23443452.742    23443452.352    23443453.286
        29.000          27.100
 124348065.283 5  96894599.378 4  23662650.715    23662650.415    23662650.570
        30.100          27.100
 129971224.603 3 101276257.349 2  24732718.509    24732721.570    24732718.089
        23.000          17.000
 111906982.604 7  87200237.174 6  21295194.255    21295193.888    21295194.010
        42.000          38.000
 128784802.911 4 100351791.498 3  24506936.106    24506935.399    24506936.131
        28.100          21.100
 106589227.966 8  83056562.459 8  20283238.552    20283235.007    20283237.452
        50.000          50.000
 11  1  1  0 37 30.0000000  0  9G18G21G14G12G27G25G09G15G22
 109583894.232 7  85390054.399 6  20853111.200    20853109.472    20853110.673
        44.000          41.000
 128722151.600 2 100302964.459    24495020.308    24495020.456    24495019.671
        15.100
 111523334.198 7  86901314.745 6  21222168.021    21222166.662    21222167.591
        43.000          40.000
 123129068.495 4  95944731.757 4  23430680.223    23430679.150    23430680.007
        29.000          27.100
 124437617.529 5  96964380.356 4  23679691.927    23679691.803    23679691.487
        30.100          27.100
 129871270.276 3 101198370.968 2  24713697.293    24713700.757    24713696.981
        23.000          15.100
 111977425.274 7  87255127.565 6  21308599.270    21308599.270    21308598.815
        42.000          38.000
 128877619.310 4 100424115.937 3  24524598.275    24524598.177    24524598.706
        28.100          23.000
 106576344.821 8  83046523.647 8  20280787.145    20280783.417    20280785.979
        50.000          51.000
 11  1  1  0 38  0.0000000  0  9G18G21G14G12G27G25G09G15G22
 109632243.248 7  85427728.949 6  20862311.950    20862309.924    20862311.340
        45.000          41.000
 128835263.960 1 100391103.888    24516545.864    24516545.665    24516544.563
        11.000           3.000
 111474950.827 7  86863613.423 6  21212960.929    21212959.723    21212960.427
        43.000          40.000
 123062330.885 4  95892728.443 4  23417981.829    23417979.486    23417980.586
        29.000          28.100
 124527350.024 4  97034301.783 4  23696767.609    23696767.358    23696766.957
        29.000          27.100
 129771330.170 3 101120495.613 1  24694679.462    24694682.779    24694678.854
        23.800          11.000
 112048374.050 7  87310412.330 6  21322100.135    21322099.701    21322099.803
        42.000          38.000
 128970461.288 4 100496460.296 3  24542266.445    24542265.677    24542266.252
        28.100          21.100
 106563897.243 8  83036824.241 8  20278418.237    20278414.689    20278417.192
        51.000          50.000
 11  1  1  0 38 30.0000000  0  9G18G21G14G12G27G25G09G15G22
 109681007.273 7  85465726.882 6  20871591.388    20871589.487    20871590.813
        45.000          41.000
 128948389.827 1 100479253.807    24538073.796    24538072.375    24538072.009
        11.000
 111426839.828 7  86826124.343 6  21203805.649    21203804.501    21203805.168
        43.000          41.000
 122995981.885 5  95841027.938 4  23405356.241    23405353.679    23405354.760
        30.100          28.100
 124617260.503 4  97104361.884 4  23713876.748    23713876.573    23713876.324
        29.000          27.100
 129671407.224 4 101042633.630 2  24675663.023    24675667.635    24675663.585
        25.900          15.100
 112119826.053 7  87366089.216 6  21335696.599    21335696.547    21335696.591
        42.000          37.000
 129063328.228 4 100568824.136 3  24559937.757    24559937.082    24559937.855
        25.900          19.300
 106551886.295 8  83027465.068 8  20276132.536    20276129.050    20276131.497
        50.000          51.000
 11  1  1  0 39  0.0000000  0  9G18G21G14G12G27G25G09G15G22
 109730185.741 7  85504047.729 7  20880949.654    20880948.002    20880949.206
        44.000          42.000
 129061526.532 1 100567412.213    24559599.560    24559601.757    24559600.535
         6.500
 111379001.454 7  86788847.699 6  21194702.369    21194701.244    21194701.837
        43.000          41.000
 122930024.099 5  95789632.293 4  23392804.601    23392802.524    23392803.627
        30.100          29.000
 124707346.873 4  97174559.070 4  23731019.525    23731019.784    23731018.944
        29.000          27.100
 129571504.314 3 100964787.298 3  24656652.441    24656656.924    24656652.404
        23.800          21.100
 112191778.733 7  87422156.244 6  21349389.203    21349388.649    21349388.820
        42.000          37.000
 129156219.443 3 100641206.855 2  24577613.068    24577612.268    24577613.420
        23.000          12.600
 106540312.688 8  83018446.679 8  20273930.307    20273926.761    20273929.208
        51.000          51.000
 11  1  1  0 39 30.0000000  0  8G18G14G12G27G25G09G15G22
 109779778.793 7  85542691.671 6  20890386.853    20890385.277    20890386.377
        45.000          41.000
 111331435.649 7  86751783.444 6  21185650.765    21185649.754    21185650.423
        43.000          41.000
 122864460.671 5  95738543.947 4  23380327.351    23380325.889    23380326.974
        30.100          28.100
 124797606.894 4  97244891.557 4  23748194.945    23748195.674    23748194.638
        28.100          27.100
 129471624.496 3 100886958.972 3  24637645.878    24637650.008    24637645.942
        23.800          21.100
 112264229.346 7  87478611.270 6  21363176.435    21363175.578    21363175.796
        42.000          37.000
 129249134.341 4 100713608.105 2  24595294.368    24595293.821    24595295.210
        24.900          16.100
 106529177.806 8  83009770.152 8  20271811.391    20271807.910    20271810.338
        51.000          51.000
 11  1  1  0 40  0.0000000  0  8G18G14G12G27G25G09G15G22
 109829785.659 7  85581658.036 6  20899902.912    20899901.212    20899902.519
        45.000          41.000
 111284142.500 7  86714931.648 6  21176651.214    21176650.118    21176650.809
        43.000          41.000
 122799294.354 5  95687765.036 4  23367925.626    23367924.698    23367925.889
        30.100          27.100
 124888038.385 4  97315357.648 4  23765404.033    23765404.353    23765403.760
        29.000          28.100
 129371770.734 3 100809150.967 3  24618644.830    24618648.656    24618644.498
        23.800          23.000
 112337175.073 7  87535452.096 6  21377057.140    21377056.707    21377056.836
        42.000          37.000
 129342071.946 4 100786026.972 3  24612980.525    24612980.576    24612980.868
        24.900          21.100
 106518482.642 8  83001436.261 8  20269776.327    20269772.673    20269775.126
        51.000          51.000
 11  1  1  0 40 30.0000000  0  8G18G14G12G27G25G09G15G22
 109880206.139 7  85620946.728 6  20909497.954    20909495.803    20909497.155
        44.000          41.000
 111237122.316 7  86678292.551 6  21167703.691    21167702.475    21167703.109
        43.000          41.000
 122734527.858 5  95637297.658 4  23355601.708    23355600.434    23355601.395
        30.100          28.100
 124978639.256 5  97385955.728 4  23782645.820    23782644.864    23782645.030
        31.000          27.100
 129271945.923 3 100731365.521 3  24599647.736    24599652.408    24599648.085
        21.100          23.000
 112410613.338 7  87592676.715 6  21391032.098    21391031.520    21391031.786
        42.000          37.000
 129435031.594 3 100858463.034 3  24630670.552    24630669.392    24630670.375
        22.100          19.300
 106508228.239 8  82993445.816 8  20267824.847    20267821.307    20267823.775
        51.000          51.000
 11  1  1  0 41  0.0000000  0  8G18G14G12G27G25G09G15G22
 109931039.768 7  85660557.319 6  20919170.719    20919169.114    20919170.382
        44.000          41.000
 111190375.354 7  86641866.355 6  21158807.975    21158806.763    21158807.503
        43.000          41.000
 122670164.020 5  95587144.038 4  23343354.646    23343352.596    23343353.709
        30.100          29.000
 125069407.264 4  97456684.056 4  23799917.858    23799917.083    23799917.006
        28.100          24.900
 129172153.046 3 100653604.971 3  24580657.628    24580662.389    24580657.607
        19.300          21.100
 112484541.078 7  87650282.751 6  21405100.363    21405099.481    21405099.823
        42.000          37.000
 129528012.854 3 100930915.887 2  24648364.297    24648363.539    24648364.305
        23.000          17.800
 106498415.659 8  82985799.645 8  20265957.593    20265954.078    20265956.510
        51.000          51.000
 11  1  1  0 41 30.0000000  0  8G18G14G12G27G25G09G15G22
 109982286.403 7  85700489.760 6  20928923.340    20928921.123    20928922.481
        44.000          41.000
 111143901.741 7  86605653.153 6  21149964.455    21149963.139    21149964.037
        43.000          41.000
 122606205.713 5  95537306.413 4  23331183.937    23331181.694    23331183.025
        31.000          29.000
 125160340.235 4  97527540.909 4  23817221.579    23817221.414    23817221.201
        29.000          27.100
 129072395.082 3 100575871.585 3  24561675.794    24561678.569    24561675.357
        19.300          21.100
 112558955.439 7  87708267.963 6  21419260.695    21419260.080    21419260.396
        42.000          37.000
 129621014.970 3 101003385.022 3  24666062.042    24666061.297    24666062.011
        23.000          19.300
 106489045.919 8  82978498.545 8  20264174.475    20264171.044    20264173.385
        51.000          51.000
 11  1  1  0 42  0.0000000  0  8G18G14G12G27G25G09G15G22
 110033945.319 7  85740743.430 6  20938753.015    20938751.511    20938752.683
        44.000          41.000
 111097701.643 7  86569653.086 6  21141172.767    21141171.564    21141172.398
        43.000          41.000
 122542656.038 5  95487787.231 4  23319089.205    23319088.594    23319089.036
        31.000          29.000
 125251436.058 4  97598524.657 4  23834556.439    23834556.279    23834556.000
        29.000          27.100
 128972675.075 3 100498167.784 3  24542697.804    24542702.120    24542697.992
        19.900          21.100
 112633853.876 6  87766630.384 6  21433513.301    21433512.730    21433512.976
        41.000          37.000
 129714037.504 4 101075870.075 3  24683763.323    24683762.490    24683764.005
        25.900          19.300
 106480120.209 8  82971543.445 8  20262475.926    20262472.486    20262474.936
        51.000          51.000
 11  1  1  0 42 30.0000000  0  8G18G14G12G27G25G09G15G22
 110086016.059 7  85781318.026 6  20948662.434    20948660.141    20948661.479
        44.000          40.000
 111051775.096 7  86533866.172 6  21132433.202    21132431.976    21132432.815
        44.000          41.000
 122479517.531 5  95438588.432 4  23307074.342    23307073.428    23307074.396
        31.000          29.000
 125342692.346 4  97669633.464 4  23851921.384    23851921.608    23851921.394
        29.000          27.100
 128872995.998 3 100420495.871 3  24523729.857    24523733.822    24523730.747
        23.000          19.300
 112709233.692 6  87825367.904 6  21447857.834    21447857.156    21447857.462
        41.000          37.000
 129807079.411 3 101148370.253 3  24701469.054    24701468.727    24701469.164
        23.800          22.100
 106471639.089 8  82964934.776 8  20260862.200    20260858.538    20260861.058
        51.000          51.000
 11  1  1  0 43  0.0000000  0  8G18G14G12G27G25G09G15G22
 110138498.170 7  85822213.172 6  20958648.700    20958647.146    20958648.400
        44.000          40.000
 111006122.607 7  86498292.811 6  21123745.940    21123744.503    21123745.387
        43.000          41.000
 122416792.855 5  95389712.082 4  23295138.813    23295137.329    23295138.231
        31.000          29.000
 125434107.158 4  97740865.786 4  23869317.591    23869317.353    23869317.122
        29.000          27.100
 128773360.910 4 100342858.236 2  24504771.695    24504774.454    24504771.079
        24.900          16.100
 112785091.717 6  87884478.049 6  21462293.085    21462292.452    21462292.707
        41.000          37.000
 129900140.115 3 101220885.062 3  24719177.974    24719177.390    24719178.039
        23.800          23.000
 106463603.585 8  82958673.345 8  20259333.129    20259329.441    20259332.045
        51.000          51.000
 11  1  1  0 43 30.0000000  0  8G18G14G12G27G25G09G15G22
 110191391.196 7  85863428.510 6  20968714.346    20968712.389    20968713.636
        44.000          40.000
 110960743.964 7  86462932.832 6  21115110.677    21115109.233    21115110.167
        44.000          41.000
 122354485.154 5  95341160.649 4  23283282.070    23283280.655    23283281.675
        30.100          29.000
 125525678.274 4  97812219.911 4  23886742.674    23886742.976    23886742.486
        29.000          27.100
 128673772.814 4 100265257.170 2  24485820.241    24485823.269    24485819.778
        27.100          13.900
 112861425.192 6  87943958.678 6  21476818.854    21476818.235    21476818.396
        41.000          37.000
 129993219.164 3 101293414.131 3  24736889.538    24736890.565    24736889.759
        22.100          23.000
 106456014.844 8  82952760.042 8  20257888.886    20257885.354    20257887.849
        51.000          51.000
 11  1  1  0 44  0.0000000  0  8G18G14G12G27G25G09G15G22
 110244694.798 7  85904963.766 6  20978857.460    20978855.843    20978856.957
        44.000          40.000
 110915639.585 7  86427786.572 7  21106527.528    21106526.330    21106527.101
        43.000          42.000
 122292596.898 5  95292936.051 5  23271504.817    23271503.765    23271504.736
        32.000          30.100
 125617403.454 4  97883694.073 4  23904196.936    23904197.868    23904196.968
        29.000          27.100
 128574234.680 4 100187695.041 2  24466877.496    24466880.904    24466877.875
        27.100          15.100
 112938231.699 6  88003807.899 6  21491434.434    21491434.025    21491434.131
        41.000          36.000
 130086315.881 2 101365956.981 4  24754605.046    24754606.085    24754605.517
        17.000          24.900
 106448873.780 8  82947195.572 8  20256530.177    20256526.482    20256529.050
        51.000          51.000
 11  1  1  0 44 30.0000000  0  8G18G14G12G27G25G09G15G22
 110298408.578 7  85946818.666 6  20989079.383    20989077.253    20989078.596
        44.000          40.000
 110870809.554 7  86392854.090 6  21097996.779    21097995.388    21097996.264
        44.000          41.000
 122231130.758 5  95245040.400 4  23259808.334    23259806.942    23259808.023
        30.100          29.000
 125709280.608 4  97955286.639 4  23921681.218    23921681.021    23921680.511
        27.100          25.900
 128474749.499 4 100110174.167 2  24447946.691    24447949.827    24447946.382
        27.100          16.100
 113015508.201 6  88064023.357 6  21506140.067    21506139.293    21506139.480
        41.000          36.000
 130179429.505 3 101438512.965 3  24772325.226    24772324.464    24772324.901
        21.100          23.000
 106442181.357 8  82941980.692 8  20255256.665    20255252.981    20255255.556
        51.000          51.000
 11  1  1  0 45  0.0000000  0  8G18G14G12G27G25G09G15G22
 110352532.232 7  85988992.931 6  20999378.346    20999376.488    20999377.894
        44.000          40.000
 110826254.032 7  86358135.509 6  21089517.767    21089516.631    21089517.454
        43.000          41.000
 122170089.407 5  95197475.739 5  23248192.947    23248191.566    23248192.186
        30.100          30.100
 125801307.660 4  98026996.042 4  23939193.103    23939193.392    23939193.035
        29.000          24.900
 128375320.303 4 100032696.937 3  24429026.521    24429029.577    24429026.417
        28.100          19.300
 113093251.887 6  88124602.855 6  21520933.817    21520933.350    21520933.518
        41.000          36.000
 130272559.561 3 101511081.810 3  24790047.158    24790046.332    24790047.138
        22.100          19.900
 106435938.462 8  82937116.099 8  20254068.815    20254065.015    20254067.648
        51.000          51.000
 11  1  1  0 45 30.0000000  0  8G18G14G12G27G25G09G15G22
 110407064.775 7  86031485.833 6  21009755.661    21009753.830    21009755.107
        44.000          40.000
 110781973.289 7  86323631.034 7  21081091.697    21081090.264    21081091.229
        43.000          42.000
 122109475.760 5  95150244.339 5  23236657.690    23236657.159    23236657.695
        30.100          30.100
 125893482.583 4  98098820.669 4  23956733.825    23956733.805    23956733.468
        29.000          27.100
 128275950.182 4  99955265.731 3  24410117.328    24410120.144    24410116.582
        27.100          19.900
 113171459.648 6  88185543.970 6  21535816.165    21535815.740    21535815.937
        40.000          36.000
 130365705.078 3 101583662.690 3  24807771.310    24807771.168    24807772.291
        22.100          19.300
 106430145.977 8  82932602.469 8  20252966.381    20252962.763    20252965.309
        51.000          51.000
 11  1  1  0 46  0.0000000  0  8G18G14G12G27G25G09G15G22
 110462005.783 7  86074297.027 6  21020210.552    21020208.678    21020210.090
        44.000          40.000
 110737967.325 7  86289340.678 7  21072717.713    21072716.336    21072717.193
        43.000          42.000
 122049292.571 5  95103348.388 5  23225205.041    23225204.313    23225205.375
        31.000          30.100
 125985803.141 4  98170758.766 4  23974301.478    23974302.142    23974301.171
        28.100          27.100
 128176642.091 3  99877882.901 3  24391218.509    24391222.432    24391218.061
        23.000          23.000
 113250128.956 6  88246844.726 6  21550786.722    21550785.990    21550786.312
        40.000          36.000
 130458865.886 3 101656255.505 2  24825500.864    24825499.159    24825500.462
        23.000          17.000
 106424804.992 8  82928440.658 8  20251950.043    20251946.420    20251948.849
        51.000          51.000
 11  1  1  0 46 30.0000000  0  9G18G14G12G27G25G09G15G22G31
 110517354.875 7  86117426.221 6  21030743.160    21030741.241    21030742.492
        44.000          39.000
 110694236.398 7  86255264.639 7  21064395.907    21064394.653    21064395.464
        44.000          42.000
 121989542.389 5  95056789.829 4  23213835.803    23213834.069    23213835.349
        31.000          29.000
 126078267.175 4  98242808.656 3  23991895.983    23991896.889    23991896.511
        27.100          23.800
 128077399.014 3  99800550.744 4  24372331.519    24372336.985    24372332.928
        21.100          25.900
 113329256.908 6  88308502.864 6  21565843.927    21565843.685    21565843.607
        40.000          36.000
 130552041.208 4 101728859.632 3  24843229.951    24843230.444    24843230.959
        24.900          19.300
 106419916.359 8  82924631.327 8  20251019.439    20251016.115    20251018.586
        51.000          51.000
 130714052.639 2 101855112.402 2  24874050.465    24874051.947    24874050.916
        15.100          15.100
 11  1  1  0 47  0.0000000  0 10G18G14G24G12G27G25G09G15G22G31
 110573111.356 7  86160872.838 6  21041353.086    21041351.323    21041352.571
        44.000          39.000
 110650780.651 7  86221403.025 7  21056126.684    21056125.255    21056126.127
        44.000          42.000
 131595159.946 1 102541688.559    25041724.101    25041723.111    25041723.221
         9.000
 121930227.988 5  95010570.831 4  23202548.539    23202546.774    23202547.761
        30.100          29.000
 126170872.661 4  98314968.780 4  24009519.347    24009519.316    24009518.689
        28.100          24.900
 127978224.119 3  99723271.686 3  24353460.956    24353464.326    24353460.427
        22.100          23.000
 113408840.544 6  88370516.081 6  21580988.177    21580987.913    21580987.778
        39.000          36.000
 130645230.001 3 101801474.234 3  24860964.462    24860964.472    24860964.002
        23.000          21.100
 106415480.859 8  82921175.084 8  20250175.704    20250171.981    20250174.620
        51.000          51.000
 130600042.305 3 101766273.200 2  24852355.651    24852356.488    24852355.857
        19.300          16.100
 11  1  1  0 47 30.0000000  0 10G18G14G24G12G27G25G09G15G22G31
 110629274.850 7  86204636.614 6  21052040.465    21052038.822    21052040.007
        44.000          39.000
 110607600.257 7  86187755.964 7  21047909.527    21047908.261    21047909.119
        44.000          42.000
 131510126.019 2 102475428.164    25025542.384    25025542.097    25025541.394
        12.600
 121871352.063 5  94964693.524 5  23191343.809    23191343.662    23191343.988
        31.000          31.000
 126263617.467 4  98387237.459 4  24027168.726    24027168.207    24027167.807
        27.100          24.900
 127879120.320 3  99646048.010 3  24334601.784    24334605.346    24334601.410
        23.000          23.000
 113488876.898 6  88432882.067 5  21596218.786    21596218.226    21596218.235
        39.000          35.100
 130738432.314 4 101874099.403 3  24878700.978    24878699.872    24878700.407
        25.900          22.100
 106411499.428 8  82918072.667 8  20249418.190    20249414.401    20249417.078
        51.000          51.000
 130486112.471 3 101677496.702 2  24830673.930    24830676.070    24830675.267
        21.100          16.100
 11  1  1  0 48  0.0000000  0 10G18G14G24G12G27G25G09G15G22G31
 110685844.805 7  86248717.096 6  21062805.785    21062803.760    21062805.096
        44.000          39.000
 110564695.254 7  86154323.498 7  21039745.097    21039743.683    21039744.611
        44.000          42.000
 131425402.326   102409409.821    25009419.772    25009420.266    25009420.072
         3.000
 121812917.025 5  94919159.758 5  23180224.337    23180223.855    23180224.389
        32.000          32.000
 126356499.525 4  98459613.067 4  24044842.620    24044843.248    24044842.272
        27.100          24.900
 127780090.804 3  99568882.226 3  24315757.395    24315760.969    24315756.651
        23.800          23.000
 113569363.102 6  88495598.584 5  21611534.532    21611534.262    21611534.172
        39.000          35.100
 130831647.141 3 101946734.331 3  24896438.425    24896437.447    24896438.008
        23.000          21.100
 106407973.126 8  82915324.896 8  20248747.006    20248743.432    20248745.935
        51.000          51.000
 130372265.100 2 101588784.488 2  24809010.699    24809011.514    24809011.026
        17.000          17.800
 11  1  1  0 48 30.0000000  0 10G18G14G24G12G27G25G09G15G22G31
 110742820.510 7  86293113.756 6  21073647.284    21073645.935    21073646.996
        44.000          39.000
 110522065.904 7  86121105.827 7  21031633.050    21031631.626    21031632.567
        44.000          42.000
 131340991.410 1 102343635.033    24993355.452    24993360.145    24993354.056
         9.000
 121754925.693 5  94873971.721 5  23169189.159    23169188.282    23169189.210
        32.000          31.000
 126449516.725 4  98532093.992 4  24062543.877    24062543.654    24062543.301
        28.100          24.900
 127681138.552 3  99491776.662 3  24296926.832    24296930.406    24296926.788
        23.800          23.000
 113650296.262 6  88558663.397 5  21626935.528    21626935.528    21626935.286
        40.000          35.100
 130924874.075 3 102019378.648 3  24914178.821    24914178.974    24914178.940
        21.100          23.000
 106404902.646 8  82912932.313 8  20248162.791    20248159.092    20248161.527
        51.000          51.000
 130258502.431 3 101500138.311 3  24787363.555    24787363.427    24787362.563
        19.900          19.900
 11  1  1  0 49  0.0000000  0 10G18G14G24G12G27G25G09G15G22G31
 110800201.620 7  86337826.314 6  21084567.483    21084565.068    21084566.503
        44.000          39.000
 110479712.164 7  86088102.917 7  21023573.214    21023572.056    21023572.825
        44.000          42.000
 131256895.629   102278106.913    24977353.204    24977352.641    24977351.028
         3.000
 121697380.693 5  94829131.490 4  23158238.603    23158237.479    23158238.558
        32.000          29.000
 126542667.097 4  98604678.706 3  24080269.473    24080269.182    24080269.278
        27.100          23.000
 127582266.635 4  99414733.650 3  24278112.655    24278115.878    24278112.239
        25.900          21.100
 113731673.877 6  88622074.520 5  21642421.371    21642420.954    21642420.961
        40.000          35.100
 131018112.432 3 102092031.882 3  24931920.810    24931921.218    24931921.503
        23.000          19.900
 106402288.864 8  82910895.598 8  20247665.106    20247661.696    20247664.141
        51.000          51.000
 130144826.548 3 101411559.766 3  24765730.513    24765731.609    24765730.487
        21.100          21.100
 11  1  1  0 49 30.0000000  0 10G18G14G24G12G27G25G09G15G22G31
 110857987.176 7  86382854.014 6  21095562.532    21095561.362    21095562.419
        44.000          39.000
 110437634.573 7  86055315.184 7  21015566.100    21015564.992    21015565.678
        44.000          42.000
 131173117.593 1 102212825.354    24961411.947    24961412.053    24961410.719
        11.000
 121640284.764 5  94784641.160 5  23147374.006    23147372.413    23147373.720
        33.000          30.100
 126635948.390 4  98677365.428 3  24098021.277    24098020.122    24098020.474
        25.900          23.000
 127483478.150 4  99337755.673 3  24259313.416    24259317.052    24259313.344
        27.100          19.900
 113813492.953 6  88685829.648 5  21657991.434    21657990.494    21657990.917
        40.000          35.100
 131111361.522 3 102164693.493 2  24949665.977    24949665.050    24949666.309
        19.300          17.000
 106400132.730 8  82909215.494 8  20247255.036    20247251.421    20247253.958
        51.000          51.000
 130031239.318 3 101323050.294 3  24744115.761    24744116.884    24744116.011
        21.100          19.300
 11  1  1  0 50  0.0000000  0 10G18G14G24G12G27G25G09G15G22G31
 110916176.827 7  86428196.596 6  21106636.679    21106634.553    21106635.691
        43.000          39.000
 110395833.137 7  86022742.641 7  21007611.619    21007610.324    21007611.159
        44.000          42.000
 131089659.801 1 102147793.171    24945530.750    24945529.457    24945530.402
         9.000
 121583640.263 5  94740502.624 5  23136594.734    23136593.570    23136594.316
        32.000          31.000
 126729358.598 4  98750152.614 3  24115796.054    24115795.599    24115795.920
        28.100          23.800
 127384776.114 4  99260845.051 3  24240531.321    24240534.342    24240531.086
        27.100          21.100
 113895750.357 6  88749926.329 5  21673644.338    21673643.551    21673643.909
        39.000          35.100
 131204621.056 3 102237363.192 2  24967412.447    24967411.959    24967413.231
        19.300          15.100
 106398434.915 8  82907892.516 8  20246931.957    20246928.319    20246930.834
        51.000          51.000
 129917743.039 3 101234611.752 2  24722518.174    24722519.018    24722518.488
        21.100          17.800
 11  1  1  0 50 30.0000000  0 10G18G14G24G12G27G25G09G15G22G31
 110974769.981 7  86473853.587 6  21117785.609    21117784.547    21117785.500
        44.000          39.000
 110354307.869 7  85990385.301 7  20999709.525    20999708.363    20999709.103
        44.000          43.000
 131006524.422   102083012.283    24929709.643    24929710.238    24929708.643
         3.000
 121527449.817 5  94696717.887 5  23125900.994    23125900.680    23125901.356
        32.000          31.000
 126822895.624 4  98823038.598 4  24133595.917    24133595.516    24133595.376
        28.100          25.900
 127286163.603 4  99184004.196 3  24221765.896    24221768.911    24221765.840
        28.100          19.300
 113978443.293 6  88814362.385 5  21689380.119    21689379.623    21689379.866
        39.000          35.100
 131297890.185 3 102310040.408 2  24985161.261    24985160.593    24985161.480
        21.100          13.900
 106397196.256 8  82906927.326 8  20246696.063    20246692.619    20246695.110
        51.000          51.000
 129804339.573 3 101146245.548 3  24700938.862    24700939.074    24700939.069
        22.100          19.300
 11  1  1  0 51  0.0000000  0 10G18G14G24G12G27G25G09G15G22G31
 111033765.874 7  86519824.408 6  21129013.076    21129011.025    21129012.257
        44.000          39.000
 110313058.935 7  85958243.280 7  20991860.014    20991858.977    20991859.742
        44.000          43.000
 130923713.715   102018485.578    24913950.156    24913952.314    24913947.577
                         3.000
 121471716.164 5  94653289.100 5  23115295.736    23115294.863    23115295.857
        32.000          30.100
 126916557.411 4  98896021.809 3  24151419.361    24151418.579    24151418.683
        27.100          23.800
 127187643.676 4  99107235.470 3  24203018.669    24203021.183    24203018.052
        27.100          19.900
 114061568.749 6  88879135.464 5  21705198.633    21705197.908    21705198.191
        39.000          35.100
 131391168.465 3 102382724.768 3  25002911.634    25002911.929    25002911.678
        23.800          19.300
 106396417.510 8  82906320.517 8  20246548.125    20246544.406    20246547.007
        51.000          51.000
 129691031.213 3 101057953.419 2  24679376.856    24679376.406    24679376.216
        21.100          15.100
 11  1  1  0 51 30.0000000  0 10G18G14G24G12G27G25G09G15G22G31
 111093163.844 7  86566108.540 6  21140315.405    21140314.077    21140315.214
        43.000          39.000
 110272086.713 7  85926316.873 7  20984063.477    20984062.129    20984062.993
        44.000          43.000
 130841230.382 1 101954212.853 1  24898255.736    24898255.803    24898255.619
        11.000           6.500
 121416441.771 5  94610218.178 5  23104777.873    23104776.272    23104777.555
        33.000          30.100
 127010341.752 4  98969100.501 4  24169265.904    24169265.260    24169265.456
        27.100          24.900
 127089219.405 4  99030541.297 3  24184288.593    24184291.746    24184288.214
        27.100          22.100
 114145123.939 6  88944243.404 5  21721098.843    21721097.842    21721098.308
        39.000          35.100
 131484454.870 3 102455415.455 2  25020664.570    25020663.567    25020664.267
        23.800          17.000
 106396099.641 8  82906072.829 8  20246487.592    20246483.934    20246486.488
        51.000          51.000
 129577819.920 3 100969736.950 2  24657833.088    24657832.804    24657833.233
        23.800          17.800
 11  1  1  0 52  0.0000000  0 10G18G14G24G12G27G25G09G15G22G31
 111152962.855 7  86612705.172 6  21151695.558    21151693.404    21151694.751
        44.000          38.000
 110231391.239 7  85894606.117 7  20976319.494    20976318.060    20976318.964
        44.000          43.000
 130759076.788 2 101890197.106 1  24882619.718    24882622.991    24882619.908
        12.600           9.000
 121361629.011 5  94567506.966 5  23094346.740    23094346.105    23094346.923
        33.000          31.000
 127104246.702 4  99042273.186 3  24187135.062    24187134.322    24187134.708
        29.000          22.100
 126990893.888 4  98953924.080 3  24165577.763    24165581.105    24165577.114
        25.900          23.000
 114229106.076 6  89009684.028 5  21737079.824    21737079.150    21737079.554
        39.000          35.100
 131577749.347 3 102528112.402 3  25038417.530    25038417.081    25038417.220
        23.800          19.300
 106396243.347 8  82906184.819 8  20246514.941    20246511.258    20246513.730
        51.000          51.000
 129464707.795 4 100881597.709 3  24636308.917    24636308.288    24636308.778
        25.900          21.100
 11  1  1  0 52 30.0000000  0 10G18G14G24G12G27G25G09G15G22G31
 111213162.993 7  86659614.348 6  21163150.976    21163149.170    21163150.465
        44.000          38.000
 110190972.646 7  85863111.114 7  20968628.053    20968626.674    20968627.584
        44.000          43.000
 130677255.365 1 101826440.142 1  24867050.696    24867052.433    24867050.021
        11.000           9.000
 121307280.465 5  94525157.497 5  23084004.621    23084003.896    23084004.665
        33.000          31.000
 127198270.229 4  99115538.300 3  24205026.721    24205026.320    24205026.649
        27.100          23.000
 126892670.166 4  98877386.163 3  24146886.975    24146889.736    24146886.332
        28.100          23.000
 114313512.161 6  89075455.008 5  21753141.883    21753141.051    21753141.510
        39.000          34.000
 131671051.461 3 102600815.327 2  25056171.445    25056171.318    25056171.731
        19.900          16.100
 106396849.282 8  82906656.975 8  20246630.015    20246626.551    20246628.933
        51.000          51.000
 129351696.582 3 100793537.151 3  24614803.311    24614803.675    24614802.848
        23.000          21.100
 11  1  1  0 53  0.0000000  0 10G18G14G24G12G27G25G09G15G22G31
 111273763.104 7  86706835.202 6  21174682.589    21174681.048    21174682.165
        43.000          38.000
 110150830.977 7  85831831.895 7  20960989.395    20960987.935    20960988.802
        44.000          43.000
 130595768.564 2 101762944.000    24851544.564    24851545.031    24851543.950
        13.900           3.000
 121253398.788 5  94483171.820 5  23073751.432    23073750.166    23073751.329
        33.000          30.100
 127292410.147 4  99188894.040 4  24222940.776    24222941.264    24222940.294
        24.900          24.900
 126794551.396 4  98800930.069 3  24128214.224    24128218.118    24128214.462
        24.900          23.000
 114398339.095 6  89141553.916 5  21769283.723    21769283.203    21769283.318
        38.000          34.000
 131764360.219 3 102673523.450 1  25073928.042    25073927.517    25073927.787
        19.300          11.000
 106397918.120 8  82907489.830 8  20246833.488    20246830.039    20246832.480
        51.000          51.000
 129238788.679 3 100705557.095 2  24593317.759    24593317.359    24593317.571
        19.900          17.800
 11  1  1  0 53 30.0000000  0 10G18G14G24G12G27G25G09G15G22G31
 111334762.623 7  86754367.260 6  21186290.878    21186288.867    21186290.089
        43.000          38.000
 110110966.190 7  85800768.436 7  20953403.247    20953401.969    20953402.778
        44.000          43.000
 130514618.797 2 101699710.335    24836103.218    24836103.172    24836102.911
        15.100           3.000
 121199986.231 5  94441551.663 5  23063587.752    23063586.277    23063587.124
        32.000          31.000
 127386664.706 4  99262339.135 3  24240876.931    24240876.917    24240876.691
        27.100          23.000
 126696540.659 4  98724558.152 3  24109564.271    24109567.090    24109563.885
        25.900          19.900
 114483584.054 6  89207978.556 5  21785505.096    21785504.797    21785504.915
        38.000          34.000
 131857675.206 2 102746236.391 2  25091683.094    25091684.736    25091683.748
        16.100          13.900
 106399450.902 8  82908684.199 8  20247125.478    20247121.777    20247124.291
        51.000          51.000
 129125985.895 2 100617658.917 3  24571851.483    24571851.840    24571851.132
        17.000          19.300
 11  1  1  0 54  0.0000000  0 10G18G14G24G12G27G25G09G15G22G31
 111396160.823 7  86802210.000 6  21197974.021    21197972.595    21197973.703
        43.000          38.000
 110071379.014 7  85769921.293 7  20945870.211    20945868.737    20945869.639
        44.000          43.000
 130433808.436 1 101636741.289    24820725.431    24820725.468    24820724.685
         9.000           3.000
 121147045.433 5  94400299.126 5  23053513.166    23053511.817    23053512.770
        32.000          30.100
 127481031.745 4  99335871.918 3  24258835.329    24258834.156    24258834.308
        27.100          23.000
 126598640.996 4  98648272.765 3  24090934.542    24090937.137    24090934.034
        27.100          21.100
 114569244.300 6  89274726.800 5  21801805.810    21801805.475    21801805.510
        38.000          34.000
 131950996.139 3 102818953.976 1  25109441.860    25109442.477    25109443.407
        19.300          11.000
 106401448.274 8  82910240.581 8  20247505.172    20247501.823    20247504.230
        51.000          51.000
 129013290.414 1 100529844.379 3  24550406.519    24550406.731    24550405.675
        11.000          21.100
 11  1  1  0 54 30.0000000  0 10G18G14G24G12G27G25G09G15G22G31
 111457956.973 7  86850362.809 6  21209733.712    21209732.174    21209733.057
        43.000          38.000
 110032069.317 7  85739290.365 7  20938389.527    20938388.316    20938389.023
        44.000          43.000
 130353339.843 2 101574038.515    24805412.454    24805411.468    24805410.867
        13.900
 121094578.777 5  94359416.039 5  23043528.958    23043528.056    23043528.595
        32.000          31.000
 127575509.281 4  99409490.785 3  24276813.710    24276812.886    24276812.885
        25.900          23.000
 126500855.494 4  98572076.321 3  24072326.406    24072328.977    24072325.821
        25.900          23.000
 114655316.870 6  89341796.337 5  21818185.107    21818184.349    21818184.698
        39.000          34.000
 132044322.133 3 102891675.545 3  25127202.155    25127202.474    25127202.447
        21.100          19.300
 106403911.229 8  82912159.758 8  20247973.974    20247970.515    20247972.850
        51.000          51.000
 128900704.203 3 100442114.970 3  24528981.483    24528981.835    24528981.506
        19.300          23.000
 11  1  1  0 55  0.0000000  0 10G18G14G24G12G27G25G09G15G22G31
 111520150.081 7  86898824.949 6  21221568.441    21221567.026    21221568.073
        43.000          37.000
 109993036.933 7  85708875.525 7  20930962.038    20930960.713    20930961.511
        44.000          43.000
 130273215.348 2 101511603.897 2  24790165.804    24790165.388    24790165.507
        17.800          12.600
 121042588.590 5  94318904.240 5  23033635.998    23033634.569    23033635.635
        33.000          32.000
 127670095.206 3  99483194.073 4  24294811.821    24294812.343    24294811.599
        23.000          24.900
 126403187.315 4  98495971.268 3  24053740.157    24053743.769    24053739.790
        27.100          23.800
 114741798.826 6  89409184.877 5  21834641.926    21834641.212    21834641.536
        38.000          34.000
 132137652.496 3 102964400.479 3  25144963.393    25144962.869    25144963.386
        21.100          22.100
 106406840.049 8  82914441.951 8  20248531.417    20248527.831    20248530.332
        51.000          51.000
 128788229.439 3 100354472.437 3  24507578.292    24507578.887    24507578.749
        19.900          23.800
 11  1  1  0 55 30.0000000  0 10G18G14G24G12G27G25G09G15G22G31
 111582739.724 7  86947596.068 6  21233479.305    21233477.522    21233478.656
        43.000          38.000
 109954282.533 7  85678677.292 7  20923587.447    20923585.984    20923586.953
        44.000          43.000
 130193437.411 2 101449439.276 1  24774982.696    24774983.546    24774982.737
        17.000          11.000
 120991077.521 5  94278765.771 5  23023832.818    23023832.374    23023832.808
        33.000          32.000
 127764787.595 4  99556980.318 3  24312831.605    24312830.838    24312831.085
        24.900          22.100
 126305639.518 4  98419960.087 4  24035177.640    24035181.125    24035177.070
        25.900          24.900
 114828687.201 6  89476890.110 5  21851176.053    21851175.466    21851175.808
        38.000          33.000
 132230986.955 3 103037128.597 3  25162724.346    25162723.708    25162724.452
        21.100          23.000
 106410235.423 8  82917087.693 8  20249177.634    20249173.905    20249176.466
        51.000          51.000
 128675868.268 3 100266918.340 3  24486196.090    24486197.047    24486196.042
        23.000          23.000
 11  1  1  0 56  0.0000000  0 10G18G14G24G12G27G25G09G15G22G31
 111645725.444 7  86996675.830 6  21245464.790    21245463.244    21245464.420
        43.000          37.000
 109915805.862 7  85648695.478 7  20916265.496    20916264.061    20916264.909
        44.000          43.000
 130114008.389 2 101387546.535 1  24759868.330    24759868.450    24759868.128
        17.000           6.500
 120940047.825 5  94239002.397 5  23014122.765    23014121.334    23014122.754
        33.000          31.000
 127859584.563 4  99630848.112 3  24330870.760    24330869.916    24330870.793
        27.100          22.100
 126208215.241 4  98344045.124 3  24016639.055    24016641.675    24016638.489
        28.100          23.800
 114915979.161 6  89544909.825 5  21867787.611    21867786.700    21867786.912
        38.000          34.000
 132324325.141 3 103109859.564 3  25180484.733    25180485.456    25180485.332
        21.100          23.000
 106414098.050 8  82920097.533 8  20249912.399    20249908.931    20249911.374
        51.000          51.000
 128563622.254 3 100179454.014 3  24464837.047    24464837.442    24464836.778
        22.100          19.900
 11  1  1  0 56 30.0000000  0 10G18G14G24G12G27G25G09G15G22G31
 111709105.768 7  87046063.068 6  21257525.817    21257524.149    21257525.420
        43.000          37.000
 109877607.346 7  85618930.400 7  20908996.417    20908995.093    20908995.994
        44.000          43.000
 130034930.797 3 101325927.601 2  24744821.082    24744822.259    24744820.698
        23.000          16.100
 120889502.057 5  94199616.110 5  23004503.045    23004502.755    23004503.762
        33.000          31.000
 127954483.858 3  99704795.638 3  24348928.626    24348928.975    24348928.675
        23.000          19.900
 126110917.608 4  98268228.847 4  23998123.695    23998126.406    23998122.970
        27.100          24.900
 115003671.492 6  89613241.510 5  21884474.532    21884473.963    21884474.249
        38.000          33.000
 132417666.162 3 103182592.779 3  25198247.026    25198247.639    25198247.837
        21.100          19.900
 106418428.657 8  82923472.032 8  20250736.630    20250733.024    20250735.492
        51.000          51.000
 128451493.765 3 100092081.217 3  24443499.581    24443499.436    24443499.473
        23.000          21.100
 11  1  1  0 57  0.0000000  0 10G18G14G24G12G27G25G09G15G22G31
 111772880.331 7  87095757.509 6  21269661.790    21269659.936    21269661.358
        43.000          37.000
 109839686.963 7  85589382.060 7  20901780.500    20901779.207    20901780.052
        44.000          43.000
 129956206.624 3 101264584.124 2  24729840.854    24729840.728    24729840.233
        23.000          17.000
 120839442.322 5  94160608.562 5  22994977.030    22994976.930    22994977.663
        32.000          31.000
 128049483.644 3  99778821.409 3  24367006.851    24367007.580    24367006.558
        23.000          23.000
 126013749.626 4  98192513.640 4  23979632.784    23979635.927    23979632.676
        28.100          25.900
 115091761.202 6  89681882.851 5  21901237.613    21901236.962    21901237.116
        38.000          34.000
 132511009.696 3 103255327.951 3  25216010.643    25216009.993    25216010.922
        22.100          21.100
 106423228.043 8  82927211.814 8  20251650.070    20251646.332    20251648.866
        51.000          50.000
 128339484.965 3 100004801.676 2  24422184.035    24422184.589    24422184.857
        21.100          16.100
 11  1  1  0 57 30.0000000  0 10G18G14G24G12G27G25G09G15G22G31
 111837048.327 7  87145758.513 6  21281872.556    21281870.798    21281871.968
        43.000          37.000
 109802044.784 7  85560050.495 7  20894617.568    20894616.101    20894617.035
        44.000          43.000
 129877838.398 3 101203517.972 3  24714927.532    24714927.887    24714926.536
        19.900          19.300
 120789871.159 5  94121981.704 5  22985544.877    22985544.092    22985544.707
        33.000          33.000
 128144581.888 4  99852923.932 3  24385104.362    24385103.978    24385103.743
        25.900          23.000
 125916714.476 4  98116901.875 3  23961168.201    23961170.938    23961167.590
        29.000          23.000
 115180245.458 6  89750831.617 5  21918075.679    21918074.992    21918075.347
        38.000          34.000
 132604354.852 4 103328064.397 3  25233773.771    25233772.863    25233773.692
        24.900          19.900
 106428496.900 8  82931317.417 8  20252652.763    20252648.920    20252651.574
        51.000          51.000
 128227597.762 3  99917616.893 3  24400893.059    24400893.276    24400893.177
        23.000          19.300
 11  1  1  0 58  0.0000000  0 10G18G14G24G12G27G25G09G15G22G31
 111901608.909 7  87196065.447 6  21294157.907    21294156.192    21294157.479
        42.000          37.000
 109764681.037 7  85530935.895 7  20887507.433    20887505.960    20887506.923
        44.000          43.000
 129799828.374 3 101142730.956 3  24700081.979    24700082.882    24700081.808
        19.300          22.100
 120740790.936 5  94083737.400 5  22976204.458    22976203.925    22976205.042
        33.000          31.000
 128239776.625 4  99927101.645 3  24403219.412    24403218.682    24403218.977
        24.900          23.000
 125819815.289 4  98041396.062 4  23942728.816    23942731.574    23942727.829
        27.100          24.900
 115269121.452 6  89820085.644 5  21934987.867    21934987.341    21934987.672
        37.000          33.000
 132697701.544 3 103400802.061 3  25251537.295    25251536.334    25251537.168
        23.000          19.300
 106434235.608 8  82935789.140 8  20253744.663    20253741.000    20253743.576
        51.000          51.000
 128115834.333 3  99830528.555 3  24379625.584    24379625.515    24379625.284
        23.000          19.900
 11  1  1  0 58 30.0000000  0 10G18G14G24G12G27G25G09G15G22G31
 111966561.353 7  87246677.729 6  21306518.237    21306516.258    21306517.521
        42.000          37.000
 109727595.865 7  85502038.360 7  20880450.283    20880448.882    20880449.787
        44.000          43.000
 129722178.887 3 101082224.899 3  24685307.058    24685306.574    24685306.531
        19.900          19.900
 120692203.701 5  94045877.246 5  22966958.429    22966958.188    22966959.190
        33.000          31.000
 128335065.763 3 100001352.943 3  24421352.841    24421351.045    24421351.818
        23.000          21.100
 125723055.124 4  97965998.599 4  23924316.622    23924318.543    23924315.667
        28.100          24.900
 115358386.351 6  89889642.709 5  21951974.538    21951974.207    21951974.165
        37.000          33.000
 132791049.067 3 103473540.408 2  25269300.278    25269299.428    25269300.625
        23.000          15.100
 106440444.960 8  82940627.603 8  20254926.105    20254922.628    20254925.055
        51.000          50.000
 128004196.582 3  99743538.181 3  24358382.013    24358381.010    24358381.593
        23.000          23.000
 11  1  1  0 59  0.0000000  0 10G18G14G24G12G27G25G09G15G22G31
 112031904.531 7  87297594.464 6  21318952.704    21318950.721    21318952.034
        42.000          36.000
 109690789.593 7  85473358.159 7  20873446.261    20873444.849    20873445.773
        44.000          44.000
 129644892.533 3 101022001.784 2  24670599.168    24670598.705    24670599.114
        19.300          12.600
 120644111.891 5  94008403.139 5  22957807.917    22957806.557    22957807.259
        33.000          32.000
 128430447.530 4 100075676.385 3  24439502.702    24439501.645    24439502.159
        24.900          19.900
 125626437.148 4  97890711.930 4  23905928.659    23905932.677    23905928.934
        27.100          24.900
 115448036.876 6  89959500.257 5  21969034.627    21969034.123    21969034.212
        37.000          33.000
 132884396.979 3 103546279.005 1  25287063.624    25287063.756    25287063.950
        21.100          11.000
 106447125.962 8  82945833.590 8  20256197.509    20256193.975    20256196.355
        50.000          50.000
 127892686.368 4  99656647.179 3  24337161.626    24337161.799    24337161.497
        25.900          23.800
 11  1  1  0 59 30.0000000  0 10G18G14G24G12G27G25G09G15G22G31
 112097638.005 7  87348815.345 6  21331461.188    21331459.432    21331460.554
        42.000          37.000
 109654262.016 7  85444895.115 7  20866495.118    20866493.887    20866494.754
        44.000          44.000
 129567971.575 2 100962063.379 3  24655961.230    24655962.438    24655960.543
        17.000          19.900
 120596518.067 5  93971317.071 5  22948750.396    22948749.758    22948750.851
        34.000          31.000
 128525919.858 4 100150070.403 3  24457671.613    24457669.807    24457670.635
        24.900          22.100
 125529964.391 4  97815538.408 3  23887570.791    23887574.157    23887571.261
        29.000          23.800
 115538070.461 6  90029656.308 5  21986167.253    21986166.817    21986167.015
        37.000          33.000
 132977744.678 2 103619017.440 1  25304827.048    25304827.068    25304827.037
        13.900          11.000
 106454278.622 8  82951407.102 8  20257558.575    20257555.062    20257557.554
        50.000          50.000
 127781305.832 4  99569857.213 4  24315966.913    24315966.827    24315966.920
        25.900          25.900
 11  1  1  1  0  0.0000000  0 10G18G14G24G12G27G25G09G15G22G31
 112163760.533 7  87400339.380 6  21344043.987    21344042.164    21344043.301
        42.000          37.000
 109618013.358 7  85416649.407 7  20859597.301    20859596.042    20859596.845
        44.000          44.000
 129491418.164 3 100902411.408 3  24641394.170    24641394.460    24641393.495
        19.300          19.300
 120549424.035 5  93934620.456 5  22939789.337    22939788.116    22939789.257
        34.000          31.000
 128621480.856 4 100224533.525 3  24475855.881    24475854.814    24475855.250
        25.900          23.000
 125433640.083 4  97740480.524 3  23869240.876    23869244.146    23869240.896
        28.100          23.800
 115628483.892 6  90100108.326 5  22003372.485    22003372.060    22003372.069
        37.000          32.000
 133071091.916 2 103691755.475 2  25322589.800    25322589.998    25322590.845
        13.900          15.100
 106461903.159 8  82957348.297 8  20259009.542    20259005.955    20259008.406
        50.000          50.000
 127670056.987 4  99483169.831 4  24294796.496    24294797.142    24294796.600
        27.100          25.900
 11  1  1  1  0 30.0000000  0 10G18G14G24G12G27G25G09G15G22G31
 112230271.419 6  87452166.018 6  21356700.252    21356698.895    21356699.683
        41.000          37.000
 109582043.963 7  85388621.308 7  20852752.785    20852751.264    20852752.249
        44.000          44.000
 129415234.819 3 100843047.761 2  24626897.044    24626896.588    24626896.501
        19.300          12.600
 120502832.345 5  93898315.267 5  22930922.711    22930921.984    22930923.240
        34.000          31.000
 128717128.556 4 100299064.192 3  24494056.830    24494055.909    24494056.254
        25.900          23.000
 125337467.293 4  97665540.724 3  23850939.627    23850943.039    23850940.438
        29.000          21.100
 115719274.323 6  90170854.108 5  22020649.489    22020648.856    22020649.096
        37.000          32.000
 133164437.811 2 103764492.485 1  25340353.798    25340353.205    25340354.145
        13.900           6.500
 106470000.682 8  82963658.052 8  20260550.411    20260546.811    20260549.247
        50.000          50.000
 127558941.817 4  99396586.640 4  24273651.877    24273652.575    24273651.941
        25.900          25.900
 11  1  1  1  1  0.0000000  0 10G18G14G24G12G27G25G09G15G22G31
 112297170.019 6  87504294.760 6  21369430.963    21369429.135    21369430.117
        41.000          36.000
 109546353.927 7  85360810.899 7  20845961.209    20845959.672    20845960.635
        44.000          44.000
 129339423.628 3 100783974.111 2  24612469.766    24612470.849    24612469.907
        19.300          17.000
 120456745.185 5  93862403.215 5  22922153.221    22922152.060    22922152.830
        34.000          32.000
 128812861.141 3 100373660.997 2  24512273.475    24512272.234    24512273.171
        23.000          17.800
 125241449.208 4  97590721.473 4  23832667.749    23832671.637    23832668.614
        29.000          24.900
 115810438.742 6  90241891.320 5  22037997.733    22037996.707    22037997.097
        37.000          32.000
 133257782.011 3 103837228.175 2  25358119.078    25358116.558    25358117.875
        21.100          13.900
 106478571.820 8  82970336.854 8  20262181.428    20262177.843    20262180.235
        50.000          50.000
 127447962.472 3  99310109.247 4  24252532.578    24252534.251    24252532.528
        19.300          25.900
 11  1  1  1  1 30.0000000  0 11G18G11G14G24G12G27G25G09G15G22G31
 112364454.957 6  87556724.558 6  21382234.386    21382233.095    21382233.961
        41.000          36.000
 130657475.254 2 101811031.050 1  24863279.835    24863278.976    24863279.594
        13.900           9.000
 109510943.155 7  85333218.094 7  20839222.472    20839221.267    20839222.084
        44.000          44.000
 129263986.932 2 100725192.299 2  24598115.543    24598114.993    24598114.845
        17.800          15.100
 120411164.738 5  93826886.016 5  22913480.482    22913478.284    22913479.485
        34.000          33.000
 128908676.530 4 100448322.358 3  24530506.380    24530505.459    24530506.329
        25.900          19.300
 125145588.882 4  97516025.180 3  23814426.065    23814429.836    23814426.798
        27.100          23.000
 115901974.141 6  90313217.612 5  22055416.118    22055415.489    22055415.742
        38.000          33.000
 133351124.098 3 103909962.239 2  25375879.356    25375878.939    25375879.132
        21.100          15.100
 106487617.185 8  82977385.193 8  20263902.543    20263899.141    20263901.456
        50.000          50.000
 127337120.876 2  99223739.260 3  24231440.723    24231440.878    24231440.086
        17.000          23.000
 11  1  1  1  2  0.0000000  0 11G18G11G14G24G12G27G25G09G15G22G31
 112432125.576 7  87609454.872 6  21395112.413    21395110.393    21395111.606
        42.000          36.000
 130609754.612 2 101773846.129    24854198.893    24854197.438    24854198.404
        17.000
 109475812.072 7  85305843.231 7  20832537.416    20832536.027    20832536.959
        44.000          44.000
 129188927.066 2 100666704.104 2  24583831.957    24583832.084    24583831.129
        17.000          15.100
 120366093.050 5  93791765.254 5  22904903.026    22904901.508    22904902.459
        34.000          32.000
 129004572.990 4 100523046.926 2  24548755.947    24548753.882    24548755.327
        28.100          16.100
 125049889.498 4  97441454.249 3  23796215.611    23796218.901    23796215.863
        29.000          23.800
 115993877.575 6  90384830.675 5  22072904.559    22072903.870    22072904.301
        37.000          32.000
 133444463.844 3 103982694.419 2  25393641.182    25393641.114    25393641.110
        19.300          15.100
 106497137.110 8  82984803.317 8  20265714.057    20265710.731    20265713.078
        50.000          50.000
 127226419.117 3  99137478.239 3  24210373.916    24210374.680    24210373.274
        19.300          21.100
 11  1  1  1  2 30.0000000  0 11G18G11G14G24G12G27G25G09G15G22G31
 112500181.040 7  87662485.075 6  21408062.546    21408061.023    21408062.118
        42.000          36.000
 130562513.602 3 101737034.945    24845209.131    24845208.642    24845208.903
        19.900           3.000
 109440960.608 7  85278686.255 7  20825905.593    20825903.954    20825905.044
        44.000          44.000
 129114246.191 3 100608511.255 2  24569619.726    24569620.018    24569620.043
        19.300          12.600
 120321532.342 5  93757042.655 5  22896423.027    22896421.448    22896422.862
        35.100          32.000
 129100548.568 3 100597833.093 3  24567019.009    24567018.564    24567018.475
        23.800          23.000
 124954354.133 4  97367011.182 4  23778036.103    23778039.147    23778035.662
        25.900          25.900
 116086146.300 6  90456728.398 5  22090462.502    22090461.897    22090462.376
        37.000          31.000
 133537800.265 3 104055424.088 2  25411403.219    25411402.453    25411403.023
        19.300          16.100
 106507132.103 8  82992591.620 8  20267616.033    20267612.721    20267615.111
        50.000          50.000
 127115859.247 3  99051327.702 3  24189336.356    24189335.896    24189336.406
        21.100          19.300
 11  1  1  1  3  0.0000000  0 11G18G11G14G24G12G27G25G09G15G22G31
 112568620.342 7  87715814.353 6  21421086.719    21421084.626    21421085.934
        42.000          36.000
 130515753.303 2 101700598.357 1  24836310.696    24836310.739    24836310.083
        12.600           6.500
 109406388.924 7  85251747.288 7  20819326.678    20819325.228    20819326.117
        44.000          44.000
 129039946.773 3 100550615.570 2  24555481.507    24555481.133    24555480.839
        21.100          12.600
 120277484.864 5  93722719.970 5  22888040.716    22888039.510    22888040.776
        34.000          32.000
 129196601.259 3 100672679.337 3  24585297.138    24585296.358    24585296.756
        22.100          19.300
 124858985.960 4  97292698.382 3  23759888.788    23759890.960    23759888.232
        29.000          23.800
 116178777.528 6  90528908.578 5  22108089.772    22108089.252    22108089.556
        37.000          32.000
 133631132.750 3 104128150.671 2  25429162.997    25429162.953    25429163.177
        21.100          15.100
 106517602.607 8  83000750.448 8  20269608.667    20269605.211    20269607.662
        50.000          50.000
 127005443.312 3  98965289.300 3  24168324.781    24168324.317    24168324.682
        23.000          19.300
 11  1  1  1  3 30.0000000  0 11G18G11G14G24G12G27G25G09G15G22G31
 112637442.599 7  87769442.069 6  21434182.606    21434181.202    21434182.303
        42.000          36.000
 130469475.290 3 101664537.585    24827505.191    24827503.836    24827504.983
        19.300
 109372096.929 7  85225026.261 7  20812801.012    20812799.657    20812800.478
        44.000          44.000
 128966030.973 3 100493018.833 1  24541415.515    24541416.249    24541415.429
        19.300          11.000
 120233952.666 5  93688798.814 5  22879757.059    22879755.697    22879756.721
        34.000          33.000
 129292729.086 4 100747584.127 3  24603590.023    24603590.023    24603589.621
        24.900          21.100
 124763788.109 4  97218518.280 4  23741773.662    23741775.569    23741772.241
        27.100          24.900
 116271768.233 6  90601368.863 5  22125785.488    22125784.744    22125785.069
        36.000          31.000
 133724461.372 3 104200874.214 2  25446923.613    25446922.017    25446923.322
        21.100          16.100
 106528549.074 8  83009280.151 8  20271691.867    20271688.211    20271690.766
        50.000          50.000
 126895173.146 4  98879364.523 3  24147341.701    24147340.843    24147341.423
        24.900          22.100
 11  1  1  1  4  0.0000000  0 11G18G11G14G24G12G27G25G09G15G22G31
 112706646.916 6  87823367.490 5  21447352.417    21447350.306    21447351.561
        41.000          35.100
 130423680.804 2 101628853.561 1  24818790.155    24818789.239    24818789.959
        12.600           6.500
 109338085.264 7  85198523.667 7  20806328.831    20806327.406    20806328.342
        44.000          44.000
 128892501.111 3 100435722.816 2  24527423.332    24527423.755    24527423.031
        19.300          12.600
 120190937.895 5  93655280.859 5  22871571.541    22871570.322    22871571.652
        34.000          32.000
 129388930.074 4 100822545.950 2  24621896.883    24621895.107    24621896.149
        24.900          17.800
 124668763.775 4  97144473.379 4  23723690.250    23723693.184    23723689.457
        29.000          25.900
 116365115.129 6  90674106.710 5  22143548.718    22143547.892    22143548.412
        36.000          31.000
 133817785.418 3 104273594.239 2  25464681.661    25464681.157    25464682.241
        19.300          13.900
 106539972.366 8  83018181.404 8  20273865.551    20273861.989    20273864.486
        50.000          50.000
 126785050.809 4  98793554.918 3  24126385.890    24126385.306    24126385.867
        28.100          23.800
 11  1  1  1  4 30.0000000  0 11G18G11G14G24G12G27G25G09G15G22G31
 112776232.450 6  87877589.954 5  21460593.299    21460591.868    21460593.062
        41.000          35.100
 130378371.330 1 101593547.535    24810167.265    24810166.493    24810167.955
        11.000
 109304353.990 7  85172239.567 7  20799910.060    20799908.541    20799909.478
        44.000          44.000
 128819359.274 3 100378729.210 1  24513505.105    24513505.842    24513504.866
        23.000           9.000
 120148442.693 5  93622167.740 5  22863485.140    22863483.496    22863484.933
        34.000          32.000
 129485202.345 3 100897563.325 3  24640215.991    24640215.073    24640215.265
        23.000          21.100
 124573915.979 5  97070566.086 4  23705641.735    23705643.953    23705640.578
        30.100          24.900
 116458815.592 5  90747120.050 5  22161378.884    22161379.090    22161378.713
        35.100          32.000
 133911104.504 2 104346310.346 2  25482439.635    25482439.664    25482439.993
        13.900          13.900
 106551872.576 8  83027454.285 8  20276129.980    20276126.536    20276129.021
        50.000          50.000
 126675078.275 4  98707862.078 4  24105458.582    24105458.213    24105458.428
        29.000          25.900
 11  1  1  1  5  0.0000000  0 10G18G11G14G24G12G27G25G09G22G31
 112846197.890 6  87932108.466 5  21473907.262    21473905.930    21473906.931
        41.000          35.100
 130333548.330 1 101558620.485    24801637.966    24801637.122    24801638.319
        11.000
 109270902.904 7  85146173.791 7  20793544.530    20793542.976    20793543.917
        44.000          44.000
 128746607.825 3 100322039.731 2  24499660.603    24499661.068    24499660.397
        23.800          15.100
 120106468.709 5  93589460.772 5  22855498.044    22855496.069    22855497.457
        34.000          32.000
 129581544.202 3 100972634.902 3  24658548.818    24658548.234    24658547.916
        22.100          22.100
 124479247.975 5  96996798.857 4  23687626.936    23687628.942    23687626.124
        31.000          25.900
 116552866.553 5  90820406.522 5  22179276.450    22179276.450    22179276.036
        34.000          30.100
 106564250.254 8  83037099.222 8  20278485.652    20278481.969    20278484.336
        50.000          50.000
 126565257.625 4  98622287.546 3  24084560.490    24084559.789    24084560.473
        28.100          23.800
 11  1  1  1  5 30.0000000  0 10G18G11G14G24G12G27G25G09G22G31
 112916542.447 6  87986922.378 5  21487294.211    21487292.118    21487293.447
        41.000          35.100
 130289212.825 2 101524073.320 1  24793200.837    24793200.515    24793200.497
        13.900           6.500
 109237732.309 7  85120326.581 7  20787232.403    20787230.836    20787231.796
        44.000          44.000
 128674249.022 3 100265656.235 2  24485891.045    24485891.382    24485890.809
        23.000          15.100
 120065018.808 5  93557162.182 5  22847609.534    22847608.560    22847609.859
        34.000          33.000
 129677953.870 3 101047759.297 3  24676894.195    24676894.612    24676893.869
        22.100          22.100
 124384762.771 4  96923174.105 4  23669646.181    23669648.745    23669645.147
        27.100          25.900
 116647265.088 5  90893963.817 5  22197239.760    22197239.431    22197239.575
        35.100          31.000
 106577105.630 8  83047116.393 8  20280932.038    20280928.299    20280930.667
        50.000          50.000
 126455590.673 4  98536832.798 3  24063691.594    24063690.894    24063691.228
        28.100          23.800
 11  1  1  1  6  0.0000000  0 10G18G11G14G24G12G27G25G09G22G31
 112987265.145 6  88042030.952 5  21500751.578    21500750.220    21500751.391
        41.000          35.100
 130245365.912 2 101489906.870 2  24784858.697    24784856.502    24784858.395
        17.000          12.600
 109204842.652 7  85094698.283 7  20780973.622    20780972.206    20780973.115
        44.000          44.000
 128602284.701 3 100209580.138 2  24472196.353    24472197.304    24472196.676
        23.000          16.100
 120024094.523 5  93525273.166 5  22839821.741    22839820.779    22839822.020
        34.000          33.000
 129774429.401 3 101122935.016 3  24695252.597    24695253.249    24695252.807
        21.100          19.900
 124290463.554 4  96849694.251 4  23651701.266    23651704.373    23651700.475
        29.000          27.100
 116742007.927 5  90967789.403 5  22215269.319    22215268.416    22215268.686
        35.100          31.000
 106590439.213 8  83057506.196 8  20283469.067    20283465.596    20283467.940
        50.000          50.000
 126346079.673 4  98451499.571 4  24042851.847    24042851.542    24042852.079
        28.100          25.900
 11  1  1  1  6 30.0000000  0 10G18G11G14G24G12G27G25G09G22G31
 113058364.899 6  88097433.326 5  21514282.298    21514280.092    21514281.446
        41.000          35.100
 130202009.204 2 101456122.451 2  24776607.692    24776606.240    24776607.249
        17.000          12.600
 109172233.660 7  85069288.687 7  20774768.059    20774766.925    20774767.746
        44.000          44.000
 128530717.367 4 100153813.425 3  24458578.201    24458578.492    24458578.026
        24.900          19.300
 119983697.796 5  93493795.223 5  22832135.616    22832133.466    22832135.034
        34.000          32.000
 129870968.825 3 101198160.557 3  24713623.335    24713623.670    24713623.431
        23.000          21.100
 124196353.445 4  96776361.778 4  23633791.979    23633796.186    23633792.156
        27.100          28.100
 116837092.534 5  91041881.300 5  22233362.746    22233362.436    22233362.572
        35.100          31.000
 106604251.667 8  83068269.144 8  20286097.257    20286094.069    20286096.401
        50.000          50.000
 126236726.258 3  98366289.145 4  24022042.207    24022042.308    24022042.164
        23.800          27.100
 11  1  1  1  7  0.0000000  0 10G18G11G14G24G12G27G25G09G22G31
 113129840.639 6  88153128.681 5  21527882.664    21527881.486    21527882.509
        41.000          35.100
 130159143.967 2 101422720.949 1  24768449.916    24768449.444    24768449.793
        16.100           9.000
 109139905.369 7  85044097.811 7  20768616.406    20768614.958    20768616.009
        44.000          44.000
 128459549.379 4 100098357.820 2  24445034.684    24445035.808    24445034.852
        24.900          16.100
 119943830.870 5  93462730.119 5  22824548.293    22824547.121    22824547.984
        34.000          32.000
 129967570.458 3 101273434.560 3  24732006.478    24732006.342    24732006.174
        19.300          19.900
 124102435.574 5  96703179.074 4  23615921.121    23615923.580    23615920.958
        31.000          25.900
 116932516.014 5  91116237.263 5  22251521.349    22251520.733    22251521.237
        35.100          31.000
 106618543.246 8  83079405.441 8  20288816.860    20288813.631    20288815.992
        50.000          50.000
 126127532.714 3  98281203.311 4  24001263.298    24001263.636    24001263.458
        19.900          24.900
 11  1  1  1  7 30.0000000  0 10G18G11G14G24G12G27G25G09G22G31
 113201691.571 6  88209116.393 5  21541556.034    21541554.168    21541555.356
        41.000          34.000
 130116771.263 2 101389703.278    24760386.649    24760385.844    24760386.814
        16.100           3.000
 109107858.101 7  85019125.915 7  20762518.189    20762516.582    20762517.545
        44.000          45.000
 128388782.625 4 100043214.888 3  24431569.016    24431569.664    24431568.824
        28.100          23.000
 119904495.465 5  93432079.184 5  22817062.479    22817061.908    22817062.584
        34.000          32.000
 130064232.282 3 101348755.486 3  24750400.846    24750400.529    24750400.248
        23.000          19.300
 124008713.080 5  96630148.623 4  23598085.005    23598089.234    23598085.796
        30.100          28.100
 117028275.167 5  91190854.778 5  22269743.577    22269743.577    22269743.500
        35.100          31.000
 106633314.195 8  83090915.280 8  20291627.604    20291624.444    20291626.640
        50.000          50.000
 126018500.987 3  98196243.588 3  23980515.910    23980515.283    23980515.403
        19.300          23.800
 11  1  1  1  8  0.0000000  0 10G18G11G14G24G12G27G25G09G22G31
 113273916.401 6  88265395.449 5  21555299.732    21555298.282    21555299.299
        41.000          34.000
 130074892.318 2 101357070.337 2  24752417.726    24752416.913    24752417.883
        16.100          17.000
 109076091.942 7  84994373.072 7  20756473.026    20756471.714    20756472.664
        44.000          45.000
 128318419.460 4  99988386.453 3  24418180.046    24418180.144    24418179.309
        25.900          23.000
 119865693.713 5  93401844.075 5  22809679.617    22809677.884    22809679.315
        35.100          33.000
 130160952.694 3 101424122.009 3  24768805.960    24768806.254    24768805.479
        21.100          22.100
 123915189.195 5  96557272.943 4  23580288.639    23580291.913    23580289.028
        31.000          25.900
 117124367.086 5  91265731.587 5  22288029.837    22288028.944    22288029.228
        35.100          31.000
 106648564.929 8  83102798.975 8  20294530.058    20294526.573    20294528.901
        50.000          50.000
 125909632.894 3  98111411.354 3  23959799.403    23959798.368    23959799.093
        21.100          23.000
 11  1  1  1  8 30.0000000  0 10G18G11G14G24G12G27G25G09G22G31
 113346514.269 6  88321965.194 5  21569114.719    21569113.156    21569114.284
        41.000          34.000
 130033508.275 2 101324823.044 2  24744542.955    24744541.087    24744542.283
        17.000          17.000
 109044607.101 7  84969839.426 7  20750481.686    20750480.323    20750481.265
        44.000          45.000
 128248462.040 4  99933874.190 3  24404866.104    24404867.299    24404866.123
        25.900          22.100
 119827427.418 5  93372026.213 5  22802398.299    22802396.145    22802397.870
        35.100          32.000
 130257729.729 3 101499532.692 3  24787222.624    24787222.542    24787222.231
        23.800          22.100
 123821866.956 5  96484554.361 4  23562530.498    23562532.685    23562529.829
        30.100          24.900
 117220788.912 5  91340865.488 5  22306378.676    22306377.258    22306378.004
        35.100          30.100
 106664295.962 8  83115056.918 8  20297523.556    20297520.028    20297522.466
        50.000          50.000
 125800930.516 4  98026708.197 3  23939114.132    23939112.728    23939113.550
        24.900          23.000
 11  1  1  1  9  0.0000000  0 10G18G11G14G24G12G27G25G09G22G31
 113419484.016 6  88378824.717 5  21583000.783    21582998.950    21583000.053
        40.000          35.100
 129992620.608 2 101292962.535 1  24736762.287    24736760.542    24736761.842
        17.800           6.500
 109013403.636 7  84945525.039 7  20744543.868    20744542.418    20744543.460
        44.000          44.000
 128178912.512 3  99879679.735 3  24391632.380    24391632.255    24391631.893
        23.800          23.000
 119789698.662 6  93342627.200 5  22795217.775    22795216.361    22795217.927
        36.000          32.000
 130354561.592 3 101574986.094 3  24805649.841    24805649.841    24805648.697
        23.800          21.100
 123728749.515 5  96411995.342 4  23544811.039    23544813.536    23544810.093
        30.100          27.100
 117317537.915 5  91416254.305 5  22324788.724    22324788.244    22324788.356
        34.000          30.100
 106680507.173 8  83127689.025 8  20300608.407    20300604.916    20300607.393
        50.000          50.000
 125692395.781 4  97942135.711 3  23918460.047    23918459.668    23918459.859
        28.100          23.800
 11  1  1  1  9 30.0000000  0 10G18G11G14G24G12G27G25G09G22G31
 113492824.519 6  88435973.128 5  21596956.507    21596955.096    21596956.206
        40.000          34.000
 129952230.303 2 101261489.581 1  24729076.540    24729074.879    24729075.921
        12.600           9.000
 108982481.857 7  84921430.144 7  20738659.817    20738658.210    20738659.385
        44.000          45.000
 128109773.101 4  99825804.907 4  24378476.331    24378475.870    24378475.592
        24.900          24.900
 119752509.071 5  93313648.314 5  22788140.535    22788139.531    22788140.697
        35.100          32.000
 130451446.412 3 101650480.774 3  24824086.080    24824085.486    24824085.291
        23.000          19.900
 123635839.964 5  96339598.348 4  23527131.610    23527133.208    23527130.599
        30.100          24.900
 117414610.921 5  91491895.607 5  22343261.362    22343260.390    22343260.989
        35.100          30.100
 106697199.152 8  83140695.748 8  20303784.899    20303781.403    20303783.812
        50.000          50.000
 125584030.686 5  97857695.377 3  23897838.472    23897838.308    23897838.728
        30.100          21.100
 11  1  1  1 10  0.0000000  0 10G18G11G14G24G12G27G25G09G22G31
 113566534.896 6  88493409.749 5  21610983.768    21610981.717    21610982.888
        40.000          34.000
 129912338.244 2 101230404.861 1  24721484.249    24721483.930    24721484.012
        13.900           9.000
 108951841.611 7  84897554.628 7  20732829.040    20732827.593    20732828.643
        44.000          45.000
 128041045.987 3  99772251.337 3  24365398.888    24365397.383    24365397.582
        21.100          23.000
 119715860.200 5  93285090.791 5  22781167.233    22781165.829    22781166.764
        35.100          33.000
 130548382.476 4 101726015.376 3  24842532.233    24842531.884    24842531.781
        24.900          19.900
 123543141.557 5  96267365.853 4  23509491.371    23509493.583    23509490.503
        30.100          25.900
 117512005.102 5  91567787.185 4  22361795.009    22361793.683    22361794.519
        35.100          29.000
 106714372.339 8  83154077.444 8  20307052.519    20307049.409    20307051.688
        50.000          50.000
 125475837.049 5  97773388.620 3  23877250.725    23877249.875    23877250.529
        31.000          22.100
 11  1  1  1 10 30.0000000  0 10G18G11G14G24G12G27G25G09G22G31
 113640613.959 6  88551133.652 5  21625079.979    21625078.635    21625079.421
        40.000          34.000
 129872945.686 3 101199709.350 2  24713989.594    24713987.435    24713989.362
        21.100          15.100
 108921483.328 7  84873898.824 7  20727052.026    20727050.618    20727051.643
        44.000          45.000
 127972733.210 1  99719020.622 3  24352396.801    24352398.439    24352396.070
        11.000          23.000
 119679754.801 5  93256956.740 5  22774295.903    22774295.095    22774295.899
        35.100          33.000
 130645367.744 3 101801588.318 3  24860986.982    24860987.133    24860987.167
        23.000          19.300
 123450657.340 5  96195300.294 4  23491891.874    23491894.472    23491891.204
        30.100          27.100
 117609717.490 5  91643926.702 5  22380388.836    22380388.005    22380388.495
        35.100          30.100
 106732027.031 8  83167834.342 8  20310412.140    20310408.918    20310411.220
        50.000          50.000
 125367817.034 4  97689217.190 3  23856693.973    23856693.700    23856694.412
        29.000          23.000
 11  1  1  1 11  0.0000000  0 10G18G11G14G24G12G27G25G09G22G31
 113715060.434 6  88609143.855 5  21639246.949    21639245.383    21639246.463
        40.000          33.000
 129834053.840 2 101169404.000 1  24706588.141    24706586.381    24706587.721
        17.000           9.000
 108891407.340 7  84850462.989 7  20721328.676    20721327.376    20721328.288
        44.000          45.000
 127904836.881 2  99666114.423 2  24339476.565    24339476.087    24339475.669
        12.600          16.100
 119644194.280 5  93229247.268 5  22767528.998    22767528.172    22767528.776
        34.000          33.000
 130742400.686 3 101877198.407 2  24879452.427    24879452.296    24879451.775
        23.000          17.000
 123358390.510 5  96123404.098 4  23474333.833    23474336.342    23474333.293
        31.000          27.100
 117707745.315 5  91720312.018 4  22399043.278    22399041.793    22399042.828
        34.000          28.100
 106750163.409 8  83181966.584 8  20313863.426    20313860.142    20313862.433
        50.000          49.000
 125259972.327 4  97605182.410 4  23836172.615    23836172.190    23836172.400
        29.000          24.900
 11  1  1  1 11 30.0000000  0 10G18G11G14G24G12G27G25G09G22G31
 113789873.350 6  88667439.597 5  21653483.278    21653481.638    21653482.809
        40.000          33.000
 129795663.665 3 101139489.626 2  24699281.537    24699280.882    24699281.679
        19.300          13.900
 108861613.295 7  84827246.853 7  20715659.108    20715657.807    20715658.652
        44.000          45.000
 127837358.998 1  99613534.360 3  24326636.382    24326636.483    24326635.402
         6.500          19.300
 119609180.284 5  93201963.660 5  22760866.745    22760865.025    22760866.058
        35.100          33.000
 130839479.440 3 101952844.189 2  24897925.583    24897925.858    24897925.295
        22.100          17.800
 123266344.121 5  96051679.689 4  23456817.225    23456820.592    23456817.473
        31.000          27.100
 117806085.532 5  91796940.758 4  22417756.229    22417755.378    22417755.823
        33.000          28.100
 106768781.437 8  83196474.149 8  20317406.908    20317403.042    20317405.416
        50.000          50.000
 125152305.106 4  97521285.878 4  23815684.142    23815683.426    23815684.103
        28.100          25.900
 11  1  1  1 12  0.0000000  0 10G18G11G14G24G12G27G25G09G22G31
 113865051.259 6  88726019.741 5  21667789.203    21667787.675    21667788.604
        40.000          34.000
 129757776.294 2 101109967.045 2  24692072.674    24692071.260    24692072.787
        17.800          15.100
 108832101.356 7  84804250.546 7  20710043.285    20710041.902    20710042.780
        44.000          45.000
 127770301.913 2  99561282.112 3  24313875.611    24313875.611    24313875.677
        15.100          19.900
 119574714.349 5  93175107.114 5  22754307.521    22754306.274    22754307.284
        35.100          33.000
 130936602.031 3 102028524.151 2  24916406.849    24916407.619    24916407.211
        21.100          16.100
 123174521.320 5  95980129.494 4  23439344.366    23439346.885    23439344.122
        31.000          27.100
 117904735.126 5  91873810.568 4  22436528.676    22436527.941    22436528.622
        34.000          29.000
 106787881.685 8  83211357.466 8  20321041.300    20321037.733    20321040.118
        50.000          49.000
 125044817.338 3  97437529.202 4  23795228.389    23795229.077    23795229.446
        23.000          24.900
 11  1  1  1 12 30.0000000  0 10G18G11G14G24G12G27G25G09G22G31
 113940593.521 6  88784883.801 5  21682164.390    21682162.786    21682164.019
        40.000          33.000
 129720392.697 2 101080836.944 2  24684958.650    24684957.121    24684958.390
        17.000          13.900
 108802871.698 7  84781474.189 7  20704481.163    20704479.666    20704480.597
        44.000          45.000
 127703667.603 2  99509359.290 2  24301196.373    24301196.652    24301195.567
        16.100          17.800
 119540798.933 5  93148679.544 5  22747853.651    22747852.293    22747853.415
        35.100          32.000
 131033766.894 3 102104237.044 2  24934897.845    24934897.586    24934897.086
        23.000          17.000
 123082925.307 5  95908756.017 4  23421914.698    23421916.953    23421913.991
        32.000          25.900
 118003691.318 5  91950919.282 4  22455359.302    22455358.426    22455359.061
        33.000          28.100
 106807464.366 8  83226616.715 8  20324767.594    20324764.197    20324766.533
        50.000          50.000
 124937510.792 3  97353913.766 4  23774809.957    23774809.652    23774809.848
        23.800          27.100
 11  1  1  1 13  0.0000000  0 10G18G11G14G24G12G27G25G09G22G31
 114016498.831 6  88844030.768 5  21696608.869    21696607.272    21696608.403
        39.000          33.000
 129683513.868 2 101052100.201 1  24677942.061    24677939.411    24677941.312
        17.800           9.000
 108773924.634 7  84758918.035 7  20698972.682    20698971.255    20698972.158
        44.000          45.000
 127637458.115 3  99457767.480 2  24288596.408    24288596.772    24288595.632
        19.900          17.000
 119507435.212 5  93122681.862 5  22741504.824    22741503.239    22741504.728
        35.100          32.000
 131130972.339 3 102179981.572 2  24953395.141    24953395.105    24953394.868
        22.100          16.100
 122991559.164 5  95837561.678 4  23404527.635    23404530.080    23404527.555
        33.000          27.100
 118102951.316 5  92028264.729 4  22474247.594    22474247.172    22474247.452
        34.000          29.000
 106827529.758 8  83242252.085 8  20328585.874    20328582.470    20328584.811
        50.000          49.000
 124830387.384 3  97270441.021 4  23754424.958    23754424.647    23754424.799
        23.000          28.100
 11  1  1  1 13 30.0000000  0 10G18G11G14G24G12G27G25G09G22G31
 114092766.228 6  88903459.876 5  21711122.081    21711120.383    21711121.549
        39.000          33.000
 129647140.979 3 101023757.692 2  24671019.862    24671018.116    24671019.728
        19.900          15.100
 108745260.189 7  84736582.106 7  20693517.787    20693516.675    20693517.332
        44.000          45.000
 127571675.667 3  99406508.442 2  24276078.046    24276078.506    24276077.876
        23.800          12.600
 119474625.128 5  93097115.584 5  22735260.271    22735259.735    22735260.692
        35.100          32.000
 131228216.658 3 102255756.384 2  24971900.948    24971900.230    24971900.340
        21.100          17.000
 122900426.062 5  95766548.879 4  23387186.257    23387188.310    23387185.743
        33.000          27.100
 118202512.329 5  92105844.765 4  22493193.641    22493192.939    22493193.427
        34.000          29.000
 106848077.999 8  83258263.688 8  20332496.024    20332492.631    20332495.070
        50.000          49.000
 124723449.162 4  97187112.594 4  23734075.151    23734075.151    23734075.145
        24.900          29.000
 11  1  1  1 14  0.0000000  0 10G18G11G14G24G12G27G25G09G22G31
 114169394.390 6  88963170.102 5  21725703.654    21725702.326    21725703.375
        39.000          33.000
 129611274.970 3 100995810.157 2  24664195.015    24664192.974    24664194.794
        22.100          12.600
 108716878.566 7  84714466.563 7  20688116.915    20688115.776    20688116.552
        44.000          46.000
 127506322.016 4  99355583.476 1  24263642.606    24263642.424    24263642.221
        27.100           6.500
 119442370.303 5  93071981.972 5  22729122.573    22729121.845    22729122.917
        35.100          32.000
 131325498.086 3 102331560.090 2  24990413.976    24990412.123    24990412.513
        21.100          15.100
 122809529.062 5  95695720.094 4  23369888.821    23369891.451    23369888.018
        32.000          28.100
 118302371.068 5  92183656.740 4  22512196.067    22512195.921    22512195.554
        32.000          29.000
 106869109.156 8  83274651.602 8  20336498.189    20336494.801    20336497.122
        50.000          49.000
 124616697.976 4  97103929.880 4  23713760.378    23713761.235    23713760.799
        28.100          28.100
 11  1  1  1 14 30.0000000  0 10G18G11G14G24G12G27G25G09G22G31
 114246381.923 6  89023160.343 5  21740354.619    21740352.515    21740353.628
        39.000          32.000
 129575916.754 3 100968258.307 1  24657466.361    24657464.104    24657466.101
        23.000          11.000
 108688779.857 7  84692571.466 7  20682770.034    20682768.664    20682769.610
        44.000          45.000
 127441399.337 4  99304994.347    24251288.741    24251288.741    24251288.188
        27.100
 119410672.411 5  93047282.346 5  22723090.842    22723089.942    22723091.077
        35.100          32.000
 131422814.913 3 102407391.358 3  25008932.411    25008930.873    25008931.142
        19.300          19.900
 122718871.312 5  95625077.711 4  23352637.731    23352639.571    23352636.694
        32.000          27.100
 118402524.697 5  92261698.532 4  22531255.419    22531254.159    22531254.878
        34.000          28.100
 106890623.335 8  83291415.893 8  20340592.195    20340588.803    20340591.212
        49.000          49.000
 124510135.712 5  97020894.367 4  23693482.775    23693482.938    23693482.973
        30.100          29.000
 11  1  1  1 15  0.0000000  0 10G18G11G14G24G12G27G25G09G22G31
 114323727.814 6  89083429.824 5  21755071.923    21755071.096    21755071.849
        39.000          33.000
 129541067.112 3 100941102.717 2  24650834.833    24650832.480    24650834.469
        22.100          15.100
 108660964.389 7  84670897.078 7  20677476.827    20677475.515    20677476.426
        44.000          45.000
 127376909.542 4  99254742.503 2  24239016.677    24239016.167    24239016.257
        25.900          12.600
 119379533.110 6  93023017.986 5  22717166.039    22717164.139    22717165.840
        36.000          32.000
 131520165.220 3 102483248.734 2  25027454.271    25027455.815    25027455.660
        21.100          17.000
 122628455.960 5  95554624.225 4  23335431.980    23335434.334    23335431.307
        33.000          28.100
 118502970.417 5  92339967.926 4  22550368.915    22550368.391    22550368.305
        33.000          29.000
 106912620.753 8  83308556.745 8  20344778.513    20344774.764    20344777.295
        50.000          49.000
 124403764.309 5  96938007.600 4  23673241.450    23673241.066    23673241.371
        31.000          28.100
 11  1  1  1 15 30.0000000  0 10G18G11G14G24G12G27G25G09G22G31
 114401430.861 6  89143977.613 5  21769859.586    21769857.418    21769858.567
        39.000          33.000
 129506727.114 3 100914344.280 1  24644299.247    24644298.057    24644299.320
        19.900          11.000
 108633432.038 7  84649443.298 7  20672237.722    20672236.355    20672237.280
        44.000          45.000
 127312854.688 4  99204829.615 1  24226826.806    24226827.143    24226826.653
        25.900          11.000
 119348954.008 6  92999190.136 5  22711346.834    22711345.233    22711346.823
        36.000          33.000
 131617547.337 3 102559130.900 2  25045987.115    25045987.104    25045986.472
        19.300          17.800
 122538286.091 5  95484362.027 4  23318271.977    23318274.984    23318272.220
        31.000          27.100
 118603705.479 5  92418462.762 4  22569538.484    22569537.801    22569537.956
        33.000          29.000
 106935101.779 8  83326074.436 8  20349056.441    20349052.781    20349055.189
        49.000          49.000
 124297585.808 4  96855271.138 4  23653035.643    23653035.634    23653035.790
        27.100          24.900
 11  1  1  1 16  0.0000000  0 10G18G11G14G24G12G27G25G09G22G31
 114479489.656 6  89204802.595 5  21784712.476    21784711.762    21784712.600
        39.000          33.000
 129472897.682 2 100887983.733 1  24637861.329    24637860.539    24637861.290
        16.100           9.000
 108606183.046 7  84628210.320 7  20667052.435    20667051.045    20667051.947
        44.000          46.000
 127249236.732 4  99155257.146 2  24214720.882    24214721.078    24214720.391
        25.900          17.800
 119318936.598 6  92975799.974 5  22705635.530    22705633.101    22705634.883
        37.000          32.000
 131714959.720 3 102635036.657 2  25064524.715    25064523.982    25064523.585
        21.100          17.800
 122448364.847 5  95414293.542 4  23301160.423    23301163.725    23301160.886
        33.000          28.100
 118704726.781 5  92497180.664 4  22588761.808    22588761.413    22588761.579
        33.000          28.100
 106958066.304 8  83343968.884 8  20353426.208    20353422.793    20353424.989
        49.000          49.000
 124191602.009 4  96772686.361 3  23632867.230    23632867.526    23632867.798
        28.100          23.000
 11  1  1  1 16 30.0000000  0 10G18G11G14G24G12G27G25G09G22G31
 114557902.913 6  89265903.795 5  21799634.937    21799633.273    21799634.180
        38.000          32.000
 129439579.625 3 100862021.588    24631522.373    24631520.802    24631522.320
        21.100           3.000
 108579217.407 7  84607198.137 7  20661921.040    20661919.590    20661920.468
        44.000          45.000
 127186057.758 3  99106026.772 3  24202697.623    24202698.987    24202697.273
        23.800          19.900
 119289481.935 6  92952848.302 5  22700029.870    22700028.041    22700029.591
        36.000          32.000
 131812400.642 3 102710964.636 2  25083066.670    25083066.668    25083066.070
        21.100          16.100
 122358695.361 5  95344421.252 4  23284097.323    23284100.483    23284097.499
        33.000          29.000
 118806031.615 5  92576119.493 4  22608039.388    22608038.686    22608039.165
        32.000          27.100
 106981514.603 8  83362240.296 8  20357888.043    20357884.848    20357887.111
        49.000          49.000
 124085814.681 4  96690254.695 3  23612736.467    23612736.692    23612736.759
        27.100          23.000
 11  1  1  1 17  0.0000000  0 10G18G11G14G24G12G27G25G09G22G31
 114636669.903 6  89327280.617 5  21814624.093    21814622.129    21814623.180
        38.000          32.000
 129406773.874 3 100836458.675 1  24625280.258    24625278.210    24625279.631
        22.100          11.000
 108552535.253 7  84586406.849 7  20656843.360    20656842.098    20656843.011
        44.000          45.000
 127123319.781 4  99057140.063 3  24190760.418    24190760.512    24190759.673
        24.900          22.100
 119260592.927 6  92930337.407 5  22694531.920    22694530.613    22694531.748
        36.000          33.000
 131909868.273 3 102786913.489 2  25101614.759    25101614.094    25101613.981
        22.100          13.900
 122269280.757 5  95274747.575 4  23267082.709    23267085.108    23267082.159
        32.000          29.000
 118907617.045 5  92655276.968 4  22627370.297    22627370.297    22627370.168
        32.000          29.000
 107005446.572 8  83380888.593 8  20362441.996    20362438.823    20362441.192
        49.000          49.000
 123980225.915 4  96607977.752 4  23592644.107    23592643.914    23592644.107
        28.100          24.900
 11  1  1  1 17 30.0000000  0 10G18G11G14G24G12G27G25G09G22G31
 114715788.969 6  89388931.807 5  21829679.555    21829678.186    21829679.226
        39.000          32.000
 129374481.174 2 100811295.528 1  24619134.049    24619132.495    24619133.472
        17.000          11.000
 108526136.796 7  84565836.625 7  20651820.068    20651818.625    20651819.539
        44.000          46.000
 127061024.660 3  99008598.455 3  24178905.445    24178906.174    24178904.985
        23.000          23.000
 119232270.453 5  92908267.967 5  22689141.879    22689140.931    22689141.863
        35.100          33.000
 132007361.120 3 102862881.965 2  25120166.145    25120166.091    25120165.930
        19.300          17.800
 122180124.105 5  95205274.911 4  23250117.367    23250119.110    23250116.527
        33.000          28.100
 119009479.973 5  92734650.677 4  22646754.693    22646754.181    22646754.231
        32.000          28.100
 107029862.427 8  83399913.938 8  20367088.239    20367084.988    20367087.357
        49.000          49.000
 123874837.456 4  96525856.903 4  23572589.331    23572589.485    23572589.288
        29.000          29.000
 11  1  1  1 18  0.0000000  0 10G18G11G14G24G12G27G25G09G22G31
 114795259.161 6  89450856.591 5  21844802.986    21844800.838    21844802.039
        38.000          32.000
 129342702.451 2 100786532.881    24613085.718    24613084.546    24613085.341
        16.100
 108500022.482 7  84545487.808 7  20646850.497    20646849.257    20646850.164
        44.000          46.000
 126999174.589 3  98960403.608 3  24167135.804    24167136.224    24167135.306
        23.000          23.000
 119204515.928 6  92886641.089 5  22683860.976    22683859.474    22683860.746
        36.000          33.000
 132104877.296 3 102938868.609 2  25138722.850    25138722.590    25138722.495
        21.100          15.100
 122091228.549 5  95136005.690 4  23233200.546    23233203.005    23233200.063
        33.000          29.000
 119111617.667 5  92814238.484 4  22666190.048    22666189.869    22666190.049
        31.000          25.900
 107054762.400 8  83419316.514 8  20371826.655    20371823.328    20371825.594
        49.000          49.000
 123769651.104 4  96443893.562 5  23552573.208    23552573.221    23552573.242
        29.000          30.100
 11  1  1  1 18 30.0000000  0 10G18G11G14G24G12G27G25G09G22G31
 114875078.962 6  89513053.793 5  21859990.909    21859990.135    21859990.942
        38.000          32.000
 129311438.485 2 100762171.390    24607137.961    24607136.564    24607137.635
        17.000
 108474192.225 7  84525360.335 7  20641935.222    20641933.950    20641934.845
        44.000          46.000
 126937771.216 3  98912556.831 3  24155449.592    24155451.045    24155448.963
        19.300          19.900
 119177330.675 6  92865457.802 5  22678687.709    22678686.401    22678687.489
        36.000          33.000
 132202415.171 3 103014872.147 2  25157283.789    25157283.625    25157283.473
        19.900          15.100
 122002597.182 5  95066942.307 4  23216334.378    23216336.575    23216334.025
        34.000          28.100
 119214027.500 5  92894038.374 4  22685678.383    22685677.800    22685678.182
        32.000          27.100
 107080146.248 8  83439096.120 8  20376657.305    20376653.741    20376656.027
        49.000          49.000
 123664669.159 5  96362089.495 5  23532595.842    23532595.729    23532595.737
        30.100          30.100
 11  1  1  1 19  0.0000000  0 10G18G11G14G24G12G27G25G09G22G31
 114955247.051 6  89575522.388 5  21875247.445    21875245.700    21875246.519
        38.000          31.000
 129280690.079 2 100738211.552 2  24601286.923    24601284.891    24601286.582
        17.800          15.100
 108448646.060 7  84505454.232 7  20637074.049    20637072.692    20637073.588
        44.000          46.000
 126876816.559 3  98865059.705 3  24143851.117    24143852.028    24143850.692
        19.900          21.100
 119150715.996 6  92844719.110 5  22673623.431    22673621.836    22673623.006
        36.000          34.000
 132299973.213 3 103090891.406 2  25175848.558    25175848.281    25175848.165
        19.300          13.900
 121914233.087 5  94998087.212 4  23199519.298    23199522.040    23199518.779
        34.000          29.000
 119316706.389 5  92974047.898 4  22705217.271    22705217.142    22705217.100
        31.000          27.100
 107106014.074 8  83459252.856 8  20381580.100    20381576.269    20381578.671
        49.000          48.000
 123559893.270 4  96280446.001 4  23512657.394    23512657.551    23512657.698
        29.000          29.000
 11  1  1  1 19 30.0000000  0 10G18G11G14G24G12G27G25G09G22G31
 115035762.340 6  89638261.540 5  21890568.489    21890567.234    21890568.001
        38.000          32.000
 129250457.761 2 100714653.908 2  24595531.994    24595530.879    24595532.645
        17.000          12.600
 108423383.974 7  84485769.490 7  20632266.844    20632265.430    20632266.386
        44.000          46.000
 126816312.611 3  98817913.781 3  24132337.547    24132338.362    24132337.215
        23.000          21.100
 119124673.856 6  92824426.560 5  22668667.672    22668666.090    22668667.338
        36.000          34.000
 132397549.657 3 103166924.995 2  25194417.693    25194416.711    25194416.396
        19.300          15.100
 121826139.420 5  94929442.847 4  23182755.152    23182758.123    23182755.361
        34.000          29.000
 119419651.623 5  93054264.945 4  22724807.316    22724806.784    22724806.874
        30.100          25.900
 107132365.782 8  83479786.632 8  20386594.453    20386590.820    20386593.265
        49.000          48.000
 123455325.267 4  96198964.489 4  23492758.985    23492758.662    23492758.899
        28.100          29.000
 11  1  1  1 20  0.0000000  0 10G18G11G14G24G12G27G25G09G22G31
 115116623.491 6  89701270.200 5  21905955.977    21905954.582    21905955.422
        37.000          31.000
 129220742.963 2 100691499.519 1  24589878.152    24589876.794    24589878.337
        17.800          11.000
 108398406.407 7  84466306.454 7  20627513.751    20627512.408    20627513.240
        44.000          46.000
 126756261.118 3  98771120.382 3  24120910.201    24120910.777    24120909.509
        23.000          19.300
 119099205.293 6  92804580.929 5  22663821.228    22663819.411    22663820.778
        36.000          33.000
 132495142.739 3 103242971.534 3  25212988.082    25212988.171    25212987.151
        19.300          19.300
 121738319.228 5  94861011.549 4  23166043.034    23166045.903    23166043.270
        33.000          28.100
 119522860.254 5  93134687.285 4  22744447.348    22744446.635    22744447.179
        31.000          25.900
 107159201.451 8  83500697.528 8  20391700.980    20391697.500    20391699.950
        49.000          48.000
 123350966.975 4  96117646.401 4  23472899.815    23472900.030    23472900.042
        28.100          28.100
 11  1  1  1 20 30.0000000  0 10G18G11G14G24G12G27G25G09G22G31
 115197829.215 6  89764547.364 5  21921408.289    21921407.401    21921408.031
        37.000          31.000
 129191545.461 2 100668748.245 1  24584321.985    24584321.253    24584321.943
        17.000           9.000
 108373713.334 7  84447065.100 7  20622814.872    20622813.487    20622814.415
        44.000          46.000
 126696663.974 3  98724681.095 3  24109569.103    24109569.519    24109568.708
        21.100          22.100
 119074311.630 6  92785183.288 5  22659084.395    22659082.270    22659083.916
        36.000          33.000
 132592751.017 3 103319029.906 2  25231562.294    25231562.134    25231562.093
        19.300          16.100
 121650775.565 5  94792795.757 4  23149384.948    23149387.429    23149384.397
        33.000          29.000
 119626329.342 5  93215312.530 4  22764136.574    22764136.442    22764136.443
        30.100          27.100
 107186520.751 8  83521985.272 8  20396899.690    20396896.232    20396898.658
        49.000          48.000
 123246820.268 4  96036493.172 4  23453081.893    23453081.456    23453081.600
        29.000          28.100
 11  1  1  1 21  0.0000000  0 10G18G11G14G24G12G27G25G09G22G31
 115279377.734 6  89828091.640 5  21936927.242    21936925.806    21936926.476
        37.000          31.000
 129162866.408 2 100646400.904 1  24578865.027    24578863.077    24578864.714
        17.800          11.000
 108349305.052 7  84428045.660 7  20618170.221    20618168.698    20618169.702
        44.000          46.000
 126637523.283 3  98678597.420 3  24098315.557    24098315.773    24098314.974
        23.800          23.000
 119049994.559 6  92766234.942 5  22654456.692    22654455.090    22654456.496
        37.000          34.000
 132690372.716 3 103395098.787 2  25250139.709    25250138.574    25250138.673
        19.900          13.900
 121563511.641 5  94724797.928 4  23132778.880    23132781.227    23132778.619
        34.000          28.100
 119730056.084 5  93296138.542 4  22783876.281    22783874.909    22783875.554
        31.000          27.100
 107214324.249 8  83543650.312 8  20402190.674    20402187.058    20402189.389
        49.000          48.000
 123142887.021 5  95955506.280 4  23433303.999    23433303.361    23433304.091
        31.000          28.100
 11  1  1  1 21 30.0000000  0 10G18G11G14G24G12G27G25G09G22G31
 115361268.537 6  89891902.625 5  21952510.117    21952509.088    21952509.687
        37.000          31.000
 129134706.391 2 100624458.076 2  24573506.478    24573504.650    24573505.627
        13.900          13.900
 108325181.611 7  84409248.178 7  20613579.508    20613578.137    20613579.042
        44.000          46.000
 126578840.789 3  98632870.837 3  24087148.064    24087149.271    24087147.731
        21.100          23.000
 119026255.239 6  92747736.787 5  22649939.320    22649937.474    22649939.078
        37.000          34.000
 132788006.230 2 103471176.861 2  25268717.799    25268717.546    25268717.183
        16.100          12.600
 121476530.465 5  94657020.407 4  23116227.222    23116229.137    23116226.878
        35.100          28.100
 119834037.749 5  93377163.240 3  22803663.373    22803661.632    22803662.895
        32.000          23.800
 107242611.812 8  83565692.561 8  20407573.518    20407570.046    20407572.350
        49.000          48.000
 123039169.238 5  95874687.263 5  23413567.087    23413566.503    23413566.939
        32.000          30.100
 11  1  1  1 22  0.0000000  0 10G18G11G14G24G12G27G25G09G22G31
 115443499.910 6  89955978.989 5  21968158.750    21968157.140    21968157.953
        37.000          31.000
 129107065.927 3 100602920.038 2  24568246.974    24568244.923    24568246.981
        19.300          15.100
 108301343.099 7  84390672.717 7  20609043.489    20609041.796    20609042.930
        44.000          46.000
 126520618.265 3  98587502.665 3  24076069.639    24076069.872    24076068.876
        23.000          23.800
 119003095.089 6  92729689.935 5  22645531.230    22645530.170    22645531.318
        36.000          33.000
 132885649.824 3 103547262.788 1  25287297.930    25287298.665    25287297.339
        19.900          11.000
 121389835.146 5  94589465.639 4  23099729.366    23099731.570    23099729.282
        35.100          29.000
 119938271.834 5  93458384.606 4  22823497.714    22823497.189    22823497.275
        30.100          27.100
 107271383.040 8  83588111.695 8  20413048.546    20413045.049    20413047.448
        49.000          48.000
 122935668.445 5  95794037.344 4  23393871.351    23393870.848    23393871.360
        31.000          29.000
 11  1  1  1 22 30.0000000  0 10G18G11G14G24G12G27G25G09G22G31
 115526070.548 6  90020319.722 5  21983870.379    21983870.057    21983870.573
        37.000          31.000
 129079946.013 3 100581787.642 2  24563086.349    24563084.053    24563085.956
        19.300          13.900
 108277789.972 7  84372319.637 7  20604561.475    20604559.805    20604560.918
        44.000          46.000
 126462857.541 3  98542494.324 3  24065078.397    24065077.797    24065077.596
        22.100          21.100
 118980515.140 6  92712095.186 5  22641235.077    22641233.153    22641234.773
        36.000          33.000
 132983302.045 2 103623355.434 1  25305880.341    25305881.068    25305880.826
        17.000           6.500
 121303428.734 5  94522136.008 4  23083286.517    23083289.205    23083286.552
        34.000          29.000
 120042755.159 5  93539800.163 4  22843380.132    22843379.821    22843380.177
        32.000          27.100
 107300638.245 8  83610907.957 8  20418615.717    20418612.120    20418614.564
        49.000          48.000
 122832386.570 5  95713558.029 4  23374217.614    23374216.943    23374217.426
        31.000          29.000
 11  1  1  1 23  0.0000000  0 10G18G11G14G24G12G27G25G09G22G31
 115608979.034 6  90084923.705 5  21999648.199    21999647.050    21999647.499
        36.000          31.000
 129053347.233 2 100561061.304 2  24558024.299    24558021.939    24558024.061
        16.100          16.100
 108254522.065 7  84354188.803 7  20600133.372    20600132.082    20600133.029
        44.000          46.000
 126405560.597 3  98497847.360 3  24054174.906    24054174.316    24054173.865
        23.000          21.100
 118958517.114 6  92694953.879 5  22637049.367    22637047.118    22637048.808
        37.000          33.000
 133080961.342 2 103699453.603 1  25324466.222    25324465.259    25324465.428
        15.100           9.000
 121217314.302 5  94455033.882 4  23066899.700    23066902.321    23066899.495
        34.000          29.000
 120147484.905 5  93621407.777 4  22863309.693    22863308.784    22863309.549
        31.000          25.900
 107330377.112 8  83634081.107 8  20424274.633    20424271.215    20424273.559
        49.000          48.000
 122729325.577 5  95633250.796 4  23354605.639    23354605.120    23354605.688
        31.000          29.000
 11  1  1  1 23 30.0000000  0 10G18G11G14G24G12G27G25G09G22G31
 115692223.925 6  90149789.828 5  22015489.362    22015487.912    22015488.536
        36.000          31.000
 129027269.763 3 100540741.201 2  24553062.453    24553060.639    24553061.590
        19.300          15.100
 108231539.588 7  84336280.381 7  20595760.187    20595758.723    20595759.617
        44.000          46.000
 126348729.121 3  98453563.093 3  24043359.560    24043360.024    24043359.037
        22.100          22.100
 118937101.882 6  92678266.694 5  22632973.714    22632971.894    22632973.206
        36.000          33.000
 133178626.121 2 103775556.031 1  25343052.163    25343051.038    25343050.834
        17.000          11.000
 121131494.941 5  94388161.696 4  23050568.793    23050571.455    23050568.603
        35.100          29.000
 120252458.267 5  93703205.195 4  22883285.749    22883284.657    22883285.219
        31.000          25.900
 107360599.417 8  83657630.948 8  20430025.937    20430022.317    20430024.654
        49.000          48.000
 122626487.255 5  95553117.094 5  23335035.306    23335035.711    23335035.733
        30.100          30.100
 11  1  1  1 24  0.0000000  0 10G18G11G14G24G12G27G25G09G22G31
 115775803.892 6  90214917.043 5  22031394.065    22031392.889    22031393.528
        37.000          31.000
 129001714.562 2 100520828.069 3  24548198.025    24548198.122    24548198.238
        17.000          19.300
 108208842.371 7  84318594.242 7  20591440.801    20591439.596    20591440.431
        44.000          46.000
 126292364.939 3  98409642.952 3  24032634.245    24032634.586    24032633.582
        23.800          21.100
 118916270.632 6  92662034.580 5  22629009.897    22629007.848    22629009.441
        36.000          33.000
 133276294.688 2 103851661.369 1  25361636.041    25361636.520    25361635.047
        13.900          11.000
 121045973.700 5  94321521.794 5  23034295.204    23034297.141    23034294.542
        35.100          30.100
 120357672.497 5  93785190.311 4  22903307.134    22903306.895    22903306.754
        30.100          28.100
 107391305.091 8  83681557.424 8  20435868.873    20435865.425    20435867.843
        49.000          48.000
 122523873.479 4  95473158.382 5  23315508.791    23315508.912    23315508.733
        29.000          30.100
 11  1  1  1 24 30.0000000  0 11G18G11G14G24G12G27G25G09G32G22G31
 115859717.430 6  90280304.204 5  22047362.838    22047360.964    22047362.023
        37.000          30.100
 128976681.921 3 100501322.133 2  24543435.152    24543433.799    24543435.051
        21.100          16.100
 108186431.028 7  84301130.860 7  20587176.293    20587174.795    20587175.756
        44.000          46.000
 126236469.668 3  98366088.208 3  24021997.166    24021998.052    24021996.684
        23.000          23.000
 118896024.562 6  92646258.435 5  22625157.251    22625155.211    22625156.903
        37.000          33.000
 133373965.360 1 103927768.397    25380222.445    25380222.489    25380220.997
        11.000           3.000
 120960753.694 5  94255116.609 5  23018078.025    23018080.396    23018077.599
        34.000          30.100
 120463124.968 4  93867361.047 4  22923373.541    22923373.853    22923373.479
        29.000          27.100
 132570590.719 2 103301760.982    25227338.923    25227338.146    25227338.852
        15.100
 107422494.085 8  83705860.527 8  20441803.909    20441800.522    20441802.973
        49.000          48.000
 122421485.834 5  95393375.857 5  23296024.672    23296025.358    23296024.889
        30.100          30.100
 11  1  1  1 25  0.0000000  0 11G18G11G14G24G12G27G25G09G32G22G31
 115943963.242 6  90345950.281 5  22063393.448    22063392.645    22063393.227
        37.000          31.000
 128952172.762 3 100482224.087 2  24538771.113    24538769.893    24538771.076
        19.900          13.900
 108164305.579 7  84283890.254 7  20582965.840    20582964.406    20582965.314
        44.000          46.000
 126181044.994 3  98322900.158 3  24011450.307    24011450.410    24011449.876
        23.800          21.100
 118876364.743 6  92630939.115 5  22621415.605    22621414.159    22621415.625
        37.000          34.000
 133471636.919 1 104003876.143 1  25398806.784    25398808.649    25398805.857
         6.500           9.000
 120875837.909 5  94188948.509 5  23001918.956    23001921.394    23001918.329
        34.000          31.000
 120568812.896 4  93949715.274 4  22943485.083    22943485.379    22943485.202
        28.100          24.900
 132472605.772 1 103225409.088    25208690.760    25208690.994    25208690.116
         9.000
 107454166.450 8  83730540.292 8  20447830.767    20447827.587    20447829.975
        49.000          48.000
 122319326.169 5  95313770.979 5  23276584.039    23276584.893    23276584.761
        30.100          30.100
 11  1  1  1 25 30.0000000  0 11G18G11G14G24G12G27G25G09G32G22G31
 116028539.911 6  90411854.158 5  22079488.705    22079486.811    22079487.759
        36.000          31.000
 128928187.262 3 100463534.083 2  24534207.370    24534205.529    24534206.625
        21.100          12.600
 108142466.019 7  84266872.419 7  20578809.934    20578808.480    20578809.448
        44.000          46.000
 126126092.709 4  98280080.199 3  24000993.000    24000993.363    24000992.418
        24.900          21.100
 118857292.676 6  92616077.778 5  22617786.246    22617784.906    22617785.975
        36.000          34.000
 133569307.561   104079983.122    25417395.044    25417394.152    25417393.565
                         3.000
 120791229.461 5  94123019.888 5  22985818.158    22985820.940    22985817.790
        35.100          31.000
 120674733.442 5  94032250.759 4  22963641.720    22963641.430    22963641.280
        31.000          24.900
 132374652.728 2 103149082.042    25190052.732    25190051.387    25190051.622
        12.600           3.000
 107486321.687 8  83755596.303 7  20453950.043    20453946.618    20453948.889
        49.000          47.000
 122217396.614 5  95234345.384 4  23257188.374    23257187.628    23257188.116
        30.100          28.100
 11  1  1  1 26  0.0000000  0 11G18G11G14G24G12G27G25G09G32G22G31
 116113446.057 6  90478014.765 5  22095645.071    22095643.973    22095644.670
        36.000          30.100
 128904725.914 2 100445252.518 2  24529742.567    24529741.175    24529742.747
        17.000          12.600
 108120912.948 7  84250077.820 7  20574708.641    20574707.110    20574708.109
        44.000          46.000
 126071614.660 4  98237629.785 3  23990626.401    23990627.114    23990625.875
        27.100          19.900
 118838809.125 6  92601675.020 5  22614269.354    22614267.486    22614268.754
        36.000          33.000
 133666975.801 1 104156088.234    25435980.089    25435979.365    25435981.236
         6.500           3.000
 120706931.365 5  94057333.095 5  22969776.005    22969779.505    22969776.331
        35.100          30.100
 120780883.670 5  94114965.225 4  22983841.052    22983841.005    22983841.090
        30.100          27.100
 132276732.876 1 103072780.820    25171418.212    25171418.297    25171417.930
         6.500           3.000
 107518959.673 8  83781028.484 7  20460160.914    20460157.403    20460159.709
        49.000          47.000
 122115698.653 5  95155100.253 4  23237835.555    23237835.321    23237835.629
        31.000          29.000
 11  1  1  1 26 30.0000000  0 11G18G11G14G24G12G27G25G09G32G22G31
 116198680.538 6  90544431.217 5  22111864.233    22111863.518    22111864.189
        36.000          30.100
 128881789.175 3 100427379.742 2  24525378.023    24525376.143    24525378.061
        21.100          13.900
 108099645.877 7  84233506.075 7  20570661.563    20570660.142    20570661.020
        44.000          47.000
 126017612.681 4  98195550.288 3  23980350.104    23980351.192    23980349.766
        25.900          21.100
 118820915.350 6  92587731.826 5  22610864.241    22610862.273    22610863.887
        37.000          33.000
 133764640.080 1 104232190.308    25454566.795    25454565.920    25454565.986
         6.500
 120622946.609 5  93991890.464 5  22953795.196    22953797.656    22953794.534
        35.100          31.000
 120887260.919 4  94197856.574 4  23004083.847    23004084.020    23004083.750
        29.000          25.900
 132178847.791 2 102996506.798 1  25152792.024    25152791.720    25152791.086
        15.100           6.500
 107552080.405 8  83806836.832 7  20466463.622    20466460.020    20466462.455
        49.000          47.000
 122014234.139 5  95076037.018 5  23218527.152    23218527.153    23218527.602
        31.000          30.100
 11  1  1  1 27  0.0000000  0 10G18G11G14G24G12G25G09G32G22G31
 116284241.509 6  90611102.062 5  22128147.065    22128145.249    22128146.331
        36.000          30.100
 128859377.650 3 100409916.207 2  24521112.349    24521111.302    24521112.708
        19.300          15.100
 108078665.090 7  84217157.413 7  20566668.869    20566667.675    20566668.485
        44.000          47.000
 125964088.259 4  98153842.960 3  23970165.276    23970165.503    23970164.673
        25.900          21.100
 118803612.416 6  92574249.029 5  22607571.619    22607569.819    22607571.327
        37.000          33.000
 120539278.324 5  93926694.416 5  22937874.005    22937876.290    22937873.186
        35.100          31.000
 120993862.553 4  94280922.776 4  23024369.828    23024369.675    23024369.328
        29.000          24.900
 132080999.105 2 102920261.127 2  25134172.387    25134171.781    25134171.367
        15.100          12.600
 107585683.293 8  83833020.906 7  20472857.725    20472854.362    20472856.910
        49.000          47.000
 121913004.800 5  94997157.052 5  23199264.143    23199264.097    23199264.444
        31.000          32.000
 11  1  1  1 27 30.0000000  0 10G18G11G14G24G12G25G09G32G22G31
 116370127.605 6  90678026.267 5  22144489.950    22144488.916    22144489.715
        36.000          30.100
 128837491.585 3 100392862.125 2  24516949.054    24516946.697    24516948.678
        23.800          13.900
 108057970.830 7  84201032.020 7  20562730.917    20562729.672    20562730.440
        44.000          47.000
 125911043.297 4  98112509.231 3  23960071.011    23960071.225    23960070.705
        27.100          21.100
 118786901.391 6  92561227.463 5  22604391.417    22604389.542    22604390.917
        37.000          33.000
 120455929.443 6  93861747.263 5  22922012.725    22922015.351    22922012.411
        36.000          31.000
 121100685.864 4  94364161.731 3  23044697.469    23044697.500    23044697.242
        29.000          23.800
 131983188.306 2 102844044.916    25115558.862    25115558.646    25115558.280
        15.100           3.000
 107619768.372 8  83859580.716 7  20479343.827    20479340.584    20479343.085
        48.000          47.000
 121812012.581 5  94918461.855 5  23180046.067    23180046.028    23180046.507
        32.000          32.000
 11  1  1  1 28  0.0000000  0 10G18G11G14G24G12G25G09G32G22G31
 116456337.521 6  90745202.796 5  22160895.947    22160894.223    22160895.015
        36.000          30.100
 128816131.228 3 100376217.712 2  24512883.348    24512881.492    24512883.376
        22.100          12.600
 108037563.642 7  84185130.314 7  20558847.561    20558846.206    20558847.122
        44.000          47.000
 125858479.286 4  98071550.239 3  23950068.500    23950068.818    23950067.912
        27.100          21.100
 118770782.794 6  92548667.522 5  22601324.227    22601322.553    22601323.778
        37.000          34.000
 120372903.085 6  93797051.438 5  22906213.549    22906215.687    22906212.999
        36.000          30.100
 121207727.931 4  94447571.111 4  23065067.250    23065067.066    23065066.680
        29.000          25.900
 131885416.923 3 102767859.424 1  25096953.192    25096953.320    25096952.724
        19.300          11.000
 107654335.336 8  83886516.020 7  20485921.885    20485918.467    20485920.806
        48.000          47.000
 121711258.840 5  94839952.497 5  23160873.610    23160873.209    23160873.553
        32.000          33.000
 11  1  1  1 28 30.0000000  0 10G18G11G14G24G12G25G09G32G22G31
 116542869.758 5  90812630.489 4  22177361.564    22177360.516    22177361.309
        35.100          29.000
 128795297.474 3 100359983.609 2  24508918.867    24508917.803    24508918.583
        19.900          17.000
 108017443.080 7  84169451.955 7  20555018.882    20555017.333    20555018.337
        44.000          47.000
 125806397.928 4  98030967.353 3  23940157.811    23940158.153    23940157.270
        27.100          22.100
 118755258.361 6  92536570.576 5  22598369.911    22598368.272    22598369.736
        37.000          34.000
 120290202.237 6  93732609.235 4  22890475.259    22890478.085    22890475.567
        36.000          29.000
 121314985.850 5  94531148.699 3  23085477.906    23085477.146    23085477.202
        30.100          23.800
 131787686.597 3 102691705.959 2  25078355.946    25078356.268    25078355.029
        19.900          13.900
 107689384.029 8  83913826.704 7  20492591.757    20492588.060    20492590.264
        48.000          47.000
 121610745.760 5  94761630.660 5  23141746.703    23141746.165    23141746.654
        32.000          32.000
 11  1  1  1 29  0.0000000  0 10G18G11G14G24G12G25G09G32G22G31
 116629722.547 6  90880307.970 4  22193889.621    22193888.249    22193889.261
        36.000          29.000
 128774990.360 3 100344159.893 3  24505054.988    24505053.675    24505054.603
        19.300          19.900
 107997609.496 7  84153997.216 7  20551244.475    20551243.261    20551244.092
        44.000          47.000
 125754800.864 4  97990761.852 3  23930338.632    23930339.137    23930338.292
        25.900          19.900
 118740328.663 6  92524937.063 5  22595528.912    22595527.318    22595528.780
        37.000          34.000
 120207829.888 6  93668423.013 5  22874801.479    22874803.430    22874800.752
        36.000          30.100
 121422457.018 4  94614892.485 3  23105928.463    23105928.321    23105928.169
        28.100          22.100
 131689998.902 3 102615585.682 2  25059766.120    25059766.777    25059765.520
        21.100          15.100
 107724913.939 8  83941512.351 7  20499352.755    20499349.219    20499351.442
        48.000          47.000
 121510475.012 5  94683497.650 5  23122665.318    23122665.199    23122665.608
        31.000          32.000
 11  1  1  1 29 30.0000000  0 11G18G11G14G24G12G27G25G09G32G22G31
 116716894.662 5  90948234.263 5  22210477.713    22210476.714    22210477.192
        35.100          30.100
 128755210.329 3 100328746.907 2  24501290.853    24501289.463    24501290.447
        22.100          17.800
 107978063.116 7  84138766.276 7  20547525.266    20547523.691    20547524.717
        44.000          47.000
 125703689.688 4  97950934.949 3  23920613.039    23920613.185    23920612.192
        25.900          19.300
 118725994.787 6  92513767.810 5  22592801.114    22592799.527    22592801.028
        37.000          34.000
 134350424.322   104688626.258    25566044.637    25566044.565    25566044.475

 120125789.056 6  93604495.121 5  22859188.971    22859191.568    22859188.775
        37.000          31.000
 121530138.877 4  94698800.435 3  23126419.824    23126419.328    23126419.366
        28.100          22.100
 131592355.392 3 102539499.828 2  25041186.113    25041185.653    25041185.079
        22.100          16.100
 107760924.995 8  83969572.909 7  20506205.209    20506201.816    20506204.150
        48.000          47.000
 121410448.348 5  94605554.840 5  23103630.952    23103630.641    23103631.057
        31.000          31.000
 11  1  1  1 30  0.0000000  0 10G18G11G14G24G12G25G09G32G22G31
 116804384.808 5  91016408.378 4  22227126.774    22227125.180    22227126.075
        35.100          29.000
 128735957.573 3 100313744.776 2  24497627.358    24497625.811    24497626.803
        19.900          17.800
 107958803.959 7  84123759.145 7  20543860.162    20543858.762    20543859.746
        44.000          47.000
 125653066.163 4  97911488.063 3  23910979.822    23910979.223    23910979.060
        24.900          19.300
 118712257.556 6  92503063.481 5  22590187.199    22590185.534    22590186.901
        37.000          34.000
 120044082.722 6  93540827.863 5  22843640.454    22843642.919    22843640.473
        36.000          30.100
 121638028.692 4  94782870.415 4  23146950.696    23146950.719    23146950.372
        29.000          24.900
 131494757.659 3 102463449.657 2  25022614.528    25022612.757    25022613.511
        19.300          15.100
 107797416.776 8  83998008.072 7  20513148.769    20513145.900    20513148.256
        48.000          47.000
 121310667.467 5  94527803.540 5  23084643.994    23084642.743    23084643.657
        32.000          31.000
 11  1  1  1 30 30.0000000  0 10G18G11G14G24G12G25G09G32G22G31
 116892191.161 5  91084828.888 4  22243836.298    22243834.275    22243835.223
        35.100          28.100
 128717232.495 3 100299153.810 2  24494063.643    24494061.965    24494063.476
        21.100          17.800
 107939832.378 7  84108976.097 7  20540249.917    20540248.614    20540249.501
        44.000          47.000
 125602931.637 3  97872422.179 2  23901439.135    23901438.524    23901438.819
        23.000          17.000
 118699117.752 6  92492824.695 5  22587686.665    22587685.067    22587686.386
        37.000          34.000
 119962713.893 6  93477423.609 5  22828156.749    22828159.438    22828156.459
        36.000          31.000
 121746123.669 4  94867100.256 3  23167520.181    23167520.396    23167519.801
        28.100          23.800
 131397207.246 3 102387436.358 2  25004050.979    25004050.226    25004050.139
        19.300          13.900
 107834388.878 8  84026817.530 7  20520184.519    20520181.481    20520183.860
        48.000          47.000
 121211134.069 5  94450245.106 5  23065703.377    23065702.069    23065703.251
        33.000          31.000
 11  1  1  1 31  0.0000000  0 10G18G11G14G24G12G25G09G32G22G31
 116980312.322 5  91153494.700 4  22260604.935    22260603.104    22260604.314
        35.100          28.100
 128699035.396 3 100284974.219 2  24490600.845    24490599.028    24490600.616
        21.100          15.100
 107921148.576 7  84094417.298 7  20536694.672    20536693.226    20536694.211
        44.000          47.000
 125553287.604 3  97833738.490 2  23891992.841    23891992.005    23891992.282
        23.000          17.000
 118686576.044 6  92483051.952 5  22585300.569    22585298.432    22585299.835
        37.000          34.000
 119881685.581 6  93414284.692 5  22812737.937    22812739.968    22812737.407
        37.000          30.100
 121854421.133 4  94951487.890 3  23188128.543    23188127.993    23188128.272
        27.100          23.000
 131299705.808 2 102311461.226 2  24985496.944    24985496.535    24985495.527
        16.100          13.900
 107871840.883 8  84056000.916 7  20527311.886    20527308.368    20527310.703
        48.000          47.000
 121111849.963 5  94372880.911 5  23046810.129    23046808.703    23046809.877
        33.000          30.100
 11  1  1  1 31 30.0000000  0 10G18G11G14G24G12G25G09G32G22G31
 117068746.756 5  91222404.631 4  22277433.640    22277431.749    22277433.109
        35.100          29.000
 128681366.500 2 100271206.260 3  24487238.887    24487236.909    24487238.896
        17.800          19.300
 107902752.517 7  84080082.707 7  20533193.951    20533192.443    20533193.558
        44.000          47.000
 125504135.622 3  97795438.258 3  23882639.172    23882638.895    23882638.311
        21.100          19.900
 118674633.547 6  92473746.125 5  22583027.387    22583025.711    22583027.122
        37.000          34.000
 119801000.761 6  93351413.418 5  22797383.834    22797386.008    22797383.309
        36.000          30.100
 121962918.355 5  95036031.203 3  23208775.514    23208774.465    23208775.196
        30.100          21.100
 131202254.973 2 102235525.540 2  24966952.484    24966952.578    24966950.634
        16.100          12.600
 107909772.766 8  84085558.210 7  20534530.308    20534526.561    20534528.961
        48.000          46.000
 121012816.975 5  94295712.376 4  23027964.499    23027963.228    23027964.462
        33.000          29.000
 11  1  1  1 32  0.0000000  0 10G18G11G14G24G12G25G09G32G22G31
 117157493.105 5  91291557.599 4  22294320.922    22294319.841    22294320.328
        34.000          28.100
 128664225.650 3 100257849.742 2  24483977.305    24483975.295    24483977.216
        22.100          17.800
 107884644.399 7  84065972.486 7  20529748.016    20529746.565    20529747.580
        44.000          47.000
 125455477.471 3  97757522.818 3  23873380.116    23873379.382    23873379.190
        22.100          19.300
 118663291.207 6  92464907.959 5  22580869.023    22580867.237    22580868.760
        36.000          34.000
 119720662.376 6  93288812.094 5  22782095.784    22782098.259    22782095.563
        37.000          31.000
 122071612.720 5  95120728.114 4  23229459.452    23229458.778    23229459.075
        30.100          24.900
 131104856.331 2 102159630.534 2  24948416.990    24948418.010    24948416.441
        13.900          16.100
 107948183.838 8  84115488.905 7  20541839.799    20541835.910    20541838.316
        48.000          46.000
 120914036.624 5  94218740.679 5  23009167.257    23009166.034    23009167.046
        34.000          31.000
 11  1  1  1 32 30.0000000  0 10G18G11G14G24G12G25G09G32G22G31
 117246549.837 5  91360952.431 4  22311267.928    22311266.754    22311267.507
        35.100          29.000
 128647613.511 3 100244905.247 3  24480816.225    24480814.221    24480815.798
        19.300          19.300
 107866824.132 7  84052086.571 7  20526356.960    20526355.519    20526356.556
        44.000          47.000
 125407314.651 3  97719993.382 3  23864214.715    23864214.344    23864214.092
        23.800          21.100
 118652549.539 6  92456537.842 5  22578825.834    22578823.187    22578825.175
        37.000          34.000
 119640673.389 6  93226483.043 5  22766873.679    22766876.944    22766873.942
        37.000          31.000
 122180501.397 4  95205576.416 3  23250179.318    23250179.511    23250179.045
        25.900          23.000
 131007511.464 2 102083777.417 2  24929892.599    24929894.091    24929892.388
        17.800          17.000
 107987073.790 8  84145792.746 7  20549239.991    20549236.468    20549238.729
        48.000          46.000
 120815510.651 5  94141967.222 5  22990417.585    22990417.374    22990417.881
        33.000          31.000
 11  1  1  1 33  0.0000000  0 10G18G11G14G24G12G25G09G32G22G31
 117335915.079 5  91430587.663 4  22328274.121    22328272.128    22328273.249
        35.100          27.100
 128631529.818 3 100232372.515 2  24477755.540    24477752.964    24477755.098
        21.100          13.900
 107849292.110 7  84038425.261 7  20523020.906    20523019.284    20523020.393
        44.000          47.000
 125359648.752 3  97682851.140 3  23855143.494    23855144.643    23855143.090
        23.000          22.100
 118642409.251 6  92448636.335 5  22576895.765    22576893.653    22576895.437
        37.000          34.000
 119561036.787 6  93164428.568 5  22751720.227    22751722.617    22751719.735
        37.000          32.000
 122289581.744 4  95290574.074 3  23270937.783    23270936.590    23270937.097
        29.000          21.100
 130910222.087 2 102007967.507 2  24911377.935    24911380.717    24911378.235
        17.800          12.600
 108026442.418 8  84176469.578 7  20556730.695    20556728.204    20556730.400
        48.000          46.000
 120717240.862 5  94065393.399 5  22971717.828    22971717.149    22971717.888
        33.000          31.000
 11  1  1  1 33 30.0000000  0 10G18G11G14G24G12G25G09G32G22G31
 117425587.399 5  91500462.188 4  22345337.990    22345336.290    22345337.492
        35.100          28.100
 128615974.805 3 100220251.737 2  24474795.170    24474793.251    24474795.025
        21.100          17.800
 107832048.557 7  84024988.728 7  20519739.658    20519737.935    20519739.166
        44.000          47.000
 125312481.069 3  97646097.082 3  23846167.662    23846169.027    23846167.179
        23.000          23.000
 118632870.911 6  92441203.884 5  22575080.422    22575078.618    22575080.206
        37.000          34.000
 119481755.487 6  93102650.952 5  22736633.848    22736635.837    22736633.300
        37.000          32.000
 122398851.061 4  95375719.032 3  23291730.872    23291729.808    23291730.838
        29.000          21.100
 130812989.802 2 101932202.090 2  24892876.438    24892877.146    24892875.885
        17.800          12.600
 108066289.197 8  84207519.002 7  20564313.497    20564310.796    20564313.086
        48.000          46.000
 120619228.793 5  93989020.410 5  22953066.439    22953066.026    22953066.636
        33.000          32.000
 11  1  1  1 34  0.0000000  0 10G18G11G14G24G12G25G09G32G22G31
 117515565.422 5  91570574.916 4  22362460.065    22362458.717    22362459.396
        34.000          28.100
 128600949.223 3 100208543.496 3  24471935.222    24471934.198    24471934.979
        23.000          19.300
 107815093.657 7  84011777.117 7  20516513.320    20516511.578    20516512.770
        44.000          47.000
 125265812.908 4  97609732.281 3  23837288.170    23837288.067    23837287.431
        24.900          23.000
 118623935.701 6  92434241.393 5  22573379.617    22573378.250    22573379.749
        37.000          34.000
 119402832.455 6  93041152.500 5  22721616.027    22721617.413    22721614.896
        37.000          32.000
 122508307.122 4  95461009.479 4  23312558.132    23312559.019    23312558.768
        27.100          24.900
 130715816.299 2 101856482.447 1  24874385.440    24874385.513    24874384.805
        17.800           6.500
 108106613.526 8  84238940.518 7  20571987.656    20571984.280    20571986.534
        48.000          46.000
 120521476.214 5  93912849.608 5  22934464.503    22934464.236    22934464.905
        34.000          32.000
 11  1  1  1 34 30.0000000  0 10G18G11G14G24G12G25G09G32G22G31
 117605847.509 5  91640924.560 4  22379640.295    22379638.777    22379639.472
        33.000          28.100
 128586452.879 3 100197247.605 2  24469176.848    24469175.725    24469176.977
        19.900          17.000
 107798427.638 7  83998790.612 7  20513341.649    20513340.167    20513341.160
        44.000          47.000
 125219645.894 4  97573757.996 3  23828501.930    23828503.037    23828501.554
        24.900          23.800
 118615604.323 6  92427749.420 5  22571794.209    22571792.697    22571794.164
        37.000          34.000
 119324270.622 6  92979935.507 5  22706664.623    22706667.334    22706664.651
        37.000          32.000
 122617946.794 4  95546442.955 3  23333421.814    23333422.542    23333422.464
        25.900          23.800
 130618703.126 2 101780809.873 2  24855905.424    24855906.302    24855904.473
        16.100          13.900
 108147415.321 8  84270734.086 7  20579752.679    20579748.650    20579750.892
        48.000          46.000
 120423984.852 5  93836882.344 5  22915913.418    22915912.202    22915913.254
        34.000          32.000
 11  1  1  1 35  0.0000000  0 10G18G11G14G24G12G25G09G32G22G31
 117696431.832 5  91711509.740 4  22396877.037    22396876.546    22396877.196
        33.000          29.000
 128572485.767 3 100186364.168 2  24466519.607    24466518.210    24466519.216
        21.100          17.800
 107782050.226 7  83986028.997 7  20510225.319    20510223.725    20510224.718
        44.000          47.000
 125173981.203 4  97538175.118 4  23819812.496    23819813.150    23819812.175
        25.900          24.900
 118607877.102 6  92421728.219 5  22570323.647    22570322.418    22570323.591
        37.000          34.000
 119246072.885 6  92919002.231 5  22691784.073    22691786.914    22691784.203
        38.000          32.000
 122727767.496 4  95632017.520 3  23354321.763    23354320.282    23354321.328
        29.000          23.000
 130521652.003 3 101705185.622 1  24837437.982    24837437.936    24837436.781
        19.300          11.000
 108188693.653 8  84302899.020 7  20587607.584    20587603.642    20587606.053
        48.000          46.000
 120326756.414 5  93761119.966 5  22897411.483    22897410.533    22897411.248
        34.000          33.000
 11  1  1  1 35 30.0000000  0 10G18G11G14G24G12G25G09G32G22G31
 117787316.984 5  91782329.316 4  22414172.984    22414171.597    22414172.079
        33.000          28.100
 128559047.974 3 100175893.146 2  24463961.360    24463960.725    24463961.315
        19.300          16.100
 107765961.555 7  83973492.368 7  20507163.484    20507162.180    20507162.986
        44.000          47.000
 125128820.582 4  97502985.024 3  23811219.087    23811219.381    23811218.518
        24.900          23.000
 118600754.881 6  92416178.451 5  22568968.876    22568967.220    22568968.508
        37.000          34.000
 119168242.184 6  92858354.921 5  22676974.204    22676976.077    22676973.528
        38.000          32.000
 122837766.780 4  95717731.283 3  23375253.578    23375252.421    23375253.282
        27.100          22.100
 130424664.652 3 101629611.035 2  24818982.114    24818981.889    24818981.269
        22.100          13.900
 108230448.208 8  84335435.036 7  20595552.239    20595549.282    20595551.514
        48.000          46.000
 120229792.227 5  93685563.499 5  22878959.975    22878958.917    22878959.675
        34.000          34.000
 11  1  1  1 36  0.0000000  0 10G18G11G14G24G12G25G09G32G22G31
 117878501.652 5  91853382.261 4  22431524.301    22431523.549    22431523.959
        34.000          28.100
 128546139.588 3 100165834.667 2  24461505.826    24461504.389    24461505.405
        22.100          17.000
 107750162.174 7  83961181.165 7  20504156.942    20504155.604    20504156.403
        44.000          47.000
 125084165.414 3  97468188.806 3  23802721.159    23802721.936    23802720.798
        23.800          23.000
 118594238.005 6  92411100.364 5  22567728.795    22567726.955    22567728.463
        37.000          34.000
 119090781.451 6  92797995.927 5  22662233.654    22662235.683    22662233.074
        38.000          32.000
 122947942.092 4  95803582.160 3  23396218.603    23396218.078    23396218.109
        24.900          21.100
 130327742.610 3 101554087.411 3  24800538.172    24800538.109    24800537.002
        21.100          19.300
 108272678.531 7  84368341.754 7  20603588.068    20603585.450    20603587.656
        47.000          46.000
 120133094.464 5  93610214.641 5  22860558.112    22860557.977    22860558.336
        33.000          34.000
 11  1  1  1 36 30.0000000  0 10G18G11G14G24G12G25G09G32G22G31
 117969983.607 5  91924666.881 4  22448932.931    22448932.052    22448932.276
        33.000          28.100
 128533760.521 3 100156188.641 3  24459150.809    24459148.355    24459150.254
        21.100          19.300
 107734652.276 7  83949095.531 8  20501205.375    20501204.159    20501204.948
        44.000          48.000
 125040017.166 4  97433787.559 4  23794319.752    23794321.188    23794319.301
        27.100          24.900
 118588326.924 6  92406494.334 5  22566603.421    22566602.090    22566603.431
        37.000          34.000
 119013693.577 6  92737927.456 5  22647563.873    22647566.229    22647563.809
        38.000          32.000
 123058290.777 4  95889568.140 3  23417218.601    23417217.030    23417217.801
        27.100          22.100
 130230887.742 3 101478616.073 3  24782107.672    24782107.611    24782106.461
        23.000          22.100
 108315384.374 8  84401619.018 7  20611715.430    20611712.198    20611714.407
        48.000          46.000
 120036664.611 5  93535074.540 5  22842208.201    22842207.522    22842208.214
        33.000          31.000
 11  1  1  1 37  0.0000000  0 10G18G11G14G24G12G25G09G32G22G31
 118061761.568 5  91996182.141 4  22466396.827    22466396.767    22466396.725
        32.000          28.100
 128521910.781 3 100146955.092 3  24456894.122    24456894.012    24456893.944
        19.300          21.100
 107719431.900 7  83937235.499 8  20498308.983    20498307.848    20498308.543
        44.000          48.000
 124996376.992 4  97399782.240 3  23786015.452    23786016.339    23786015.003
        25.900          23.800
 118583022.558 6  92402361.075 5  22565593.607    22565592.519    22565593.736
        37.000          34.000
 118936981.399 6  92678151.733 5  22632965.994    22632968.764    22632966.077
        38.000          33.000
 123168810.127 4  95975687.120 3  23438249.324    23438248.299    23438248.737
        28.100          23.000
 130134101.596 3 101403198.312 3  24763689.428    24763689.569    24763688.447
        23.000          21.100
 108358564.664 7  84435265.978 7  20619933.537    20619929.100    20619931.568
        47.000          46.000
 119940504.255 5  93460144.448 5  22823909.326    22823908.647    22823909.431
        33.000          31.000
 11  1  1  1 37 30.0000000  0 10G18G11G14G24G12G25G09G32G22G31
 118153833.944 5  92067926.825 4  22483918.496    22483917.632    22483917.921
        33.000          28.100
 128510590.568 3 100138134.131 3  24454740.977    24454739.748    24454740.538
        21.100          19.900
 107704501.146 7  83925601.145 8  20495467.749    20495466.627    20495467.350
        44.000          48.000
 124953246.330 4  97366173.917 3  23777808.433    23777808.260    23777807.879
        27.100          22.100
 118578325.224 6  92398700.832 5  22564700.103    22564698.534    22564700.021
        37.000          34.000
 118860647.835 6  92618671.032 5  22618440.740    22618442.766    22618439.949
        38.000          32.000
 123279497.494 4  96061937.004 3  23459311.352    23459310.807    23459311.154
        25.900          19.300
 130037385.909 3 101327835.475 3  24745284.177    24745284.758    24745283.785
        22.100          21.100
 108402219.063 7  84469282.379 7  20628240.230    20628236.179    20628238.557
        47.000          46.000
 119844615.025 5  93385425.604 5  22805662.307    22805661.525    22805662.444
        35.100          32.000
 11  1  1  1 38  0.0000000  0 10G18G11G14G24G12G25G09G32G22G31
 118246199.412 5  92139899.900 4  22501495.564    22501494.080    22501494.857
        33.000          27.100
 128499799.663 3 100129725.645 2  24452688.155    24452686.272    24452687.569
        22.100          17.800
 107689860.421 7  83914192.792 8  20492681.676    20492680.577    20492681.307
        44.000          48.000
 124910626.472 4  97332963.623 3  23769697.803    23769698.241    23769697.594
        27.100          23.000
 118574235.344 6  92395513.923 5  22563922.532    22563920.482    22563922.134
        37.000          34.000
 118784695.802 6  92559487.615 5  22603987.677    22603989.607    22603986.832
        38.000          32.000
 123390350.367 4  96148315.874 3  23480405.952    23480405.251    23480405.780
        24.900          19.300
 129940742.293 3 101252528.771 3  24726893.348    24726893.847    24726893.071
        21.100          19.900
 108446347.177 7  84503667.923 7  20636636.474    20636633.503    20636635.630
        47.000          45.000
 119748998.563 6  93310919.308 5  22787467.777    22787466.834    22787467.584
        36.000          33.000
 11  1  1  1 38 30.0000000  0 10G18G11G14G24G12G25G09G32G22G31
 118338855.890 5  92212099.735 4  22519127.494    22519125.880    22519126.568
        33.000          25.900
 128489538.091 3 100121729.631 2  24450735.057    24450733.054    24450734.799
        21.100          16.100
 107675509.740 7  83903010.445 8  20489950.986    20489949.678    20489950.586
        44.000          48.000
 124868518.629 4  97300152.317 3  23761685.480    23761685.179    23761685.007
        27.100          23.000
 118570753.361 6  92392800.695 5  22563259.532    22563257.776    22563259.390
        37.000          34.000
 118709128.122 6  92500603.719 5  22589606.712    22589609.705    22589606.552
        38.000          33.000
 123501366.327 4  96234821.847 3  23501531.770    23501531.979    23501531.462
        27.100          23.000
 129844172.590 3 101177279.680 3  24708517.263    24708517.353    24708515.866
        19.900          19.300
 108490948.312 7  84538422.077 7  20645123.608    20645120.796    20645123.027
        47.000          45.000
 119653656.385 5  93236626.741 5  22769324.791    22769323.806    22769324.578
        35.100          34.000
 11  1  1  1 39  0.0000000  0 10G18G11G14G24G12G25G09G32G22G31
 118431801.853 5  92284525.139 4  22536813.589    22536813.148    22536813.382
        33.000          25.900
 128479805.549 3 100114145.804 2  24448884.103    24448880.891    24448883.642
        21.100          13.900
 107661448.958 7  83892053.995 8  20487275.189    20487274.024    20487274.782
        44.000          48.000
 124826924.043 4  97267740.971 4  23753770.057    23753770.625    23753769.506
        24.900          24.900
 118567879.937 6  92390561.667 5  22562712.776    22562711.239    22562712.593
        37.000          34.000
 118633947.692 6  92442021.572 5  22575300.486    22575303.236    22575300.224
        38.000          33.000
 123612542.504 4  96321452.610 3  23522687.616    23522688.543    23522687.599
        25.900          23.800
 129747678.443 3 101102089.476 2  24690154.644    24690155.365    24690153.909
        21.100          17.800
 108536021.979 7  84573544.415 7  20653700.951    20653698.050    20653700.251
        47.000          45.000
 119558590.219 5  93162549.260 5  22751233.586    22751233.250    22751233.754
        35.100          34.000
 11  1  1  1 39 30.0000000  0 10G18G11G14G24G12G25G09G32G22G31
 118525035.721 5  92357174.891 4  22554556.262    22554554.596    22554555.151
        31.000          24.900
 128470602.263 3 100106974.442 3  24447132.053    24447129.310    24447131.834
        23.000          19.300
 107647678.344 7  83881323.646 8  20484654.926    20484653.587    20484654.473
        44.000          48.000
 124785844.088 4  97235730.623 3  23745951.936    23745952.891    23745951.687
        24.900          23.000
 118565615.338 6  92388797.051 5  22562281.767    22562280.255    22562281.476
        37.000          34.000
 118559157.324 6  92383743.393 5  22561068.182    22561070.971    22561068.334
        38.000          33.000
 123723876.626 4  96408206.431 3  23543873.713    23543874.292    23543873.112
        24.900          22.100
 129651261.649 3 101026959.479 2  24671807.331    24671807.852    24671806.771
        23.000          17.000
 108581567.357 7  84609034.314 7  20662368.715    20662365.090    20662367.367
        47.000          45.000
 119463801.521 5  93088687.977 5  22733195.921    22733195.362    22733196.122
        35.100          34.000
 11  1  1  1 40  0.0000000  0 10G18G11G14G24G12G25G09G32G22G31
 118618555.747 5  92430047.597 4  22572351.899    22572350.924    22572351.200
        31.000          25.900
 128461927.705 3 100100215.026 2  24445480.230    24445479.346    24445479.771
        22.100          17.000
 107634198.304 7  83870819.720 8  20482089.663    20482088.337    20482089.253
        44.000          48.000
 124745279.945 4  97204122.211 3  23738232.807    23738234.073    23738232.311
        24.900          23.000
 118563959.941 6  92387507.144 5  22561966.365    22561965.014    22561966.299
        37.000          34.000
 118484759.860 6  92325771.366 5  22546911.455    22546913.698    22546911.235
        39.000          33.000
 123835366.185 4  96495081.414 3  23565089.794    23565089.266    23565089.596
        24.900          19.300
 129554923.885 3 100951891.102 2  24653475.679    24653475.755    24653474.841
        21.100          16.100
 108627583.944 7  84644891.400 7  20671125.908    20671121.759    20671124.163
        47.000          45.000
 119369292.165 5  93015044.344 5  22715211.141    22715210.515    22715211.245
        35.100          34.000
 11  1  1  1 40 30.0000000  0 10G18G11G14G24G12G25G09G32G22G31
 118712360.169 5  92503141.935 4  22590202.237    22590201.317    22590201.912
        31.000          25.900
 128453781.724 3 100093867.528 2  24443928.786    24443929.231    24443929.609
        21.100          17.800
 107621009.002 7  83860542.350 8  20479579.798    20479578.497    20479579.329
        43.000          48.000
 124705233.028 4  97172916.805 3  23730612.628    23730613.125    23730612.122
        25.900          22.100
 118562913.800 6  92386691.983 5  22561767.680    22561765.970    22561767.451
        37.000          34.000
 118410758.167 6  92268107.713 5  22532829.384    22532831.305    22532829.311
        40.000          32.000
 123947008.366 4  96582075.351 2  23586335.286    23586334.421    23586334.713
        28.100          17.000
 129458666.811 3 100876885.578 2  24635158.382    24635158.338    24635158.152
        22.100          15.100
 108674071.072 7  84681115.138 7  20679971.734    20679967.895    20679970.273
        47.000          45.000
 119275063.685 5  92941619.600 5  22697279.754    22697279.548    22697280.126
        35.100          34.000
 11  1  1  1 41  0.0000000  0 10G18G11G14G24G12G25G09G32G22G31
 118806447.548 5  92576456.753 4  22608106.571    22608105.656    22608106.207
        32.000          25.900
 128446164.624 3 100087932.111 2  24442480.632    24442480.243    24442480.587
        19.300          17.800
 107608110.356 7  83850491.462 8  20477125.312    20477124.006    20477124.792
        44.000          48.000
 124665704.549 4  97142115.395 3  23723090.148    23723091.058    23723089.886
        25.900          23.000
 118562477.467 6  92386351.991 5  22561684.215    22561683.131    22561684.263
        37.000          34.000
 118337154.961 6  92210754.588 5  22518822.977    22518825.348    22518822.703
        39.000          33.000
 124058800.699 4  96669186.276 3  23607608.629    23607608.055    23607607.801
        24.900          22.100
 129362492.268 3 100801944.370 3  24616856.874    24616856.908    24616856.303
        23.000          19.300
 108721028.232 8  84717705.132 7  20688906.346    20688903.506    20688905.867
        48.000          45.000
 119181117.599 5  92868414.891 5  22679402.645    22679401.911    22679402.583
        35.100          34.000
 11  1  1  1 41 30.0000000  0 10G18G11G14G24G12G25G09G32G22G31
 118900816.241 5  92649990.785 4  22626064.019    22626063.549    22626063.950
        33.000          25.900
 128439076.233 2 100082408.682 2  24441131.947    24441130.491    24441131.289
        17.000          16.100
 107595502.832 7  83840667.418 8  20474726.126    20474724.883    20474725.619
        44.000          48.000
 124626695.477 4  97111718.712 3  23715667.571    23715667.782    23715667.316
        25.900          23.000
 118562651.623 6  92386487.715 5  22561717.684    22561716.575    22561717.387
        37.000          35.100
 118263953.125 6  92153714.223 5  22504893.487    22504895.332    22504892.619
        38.000          33.000
 124170740.639 3  96756412.194 3  23628909.420    23628909.753    23628909.285
        23.800          23.800
 129266402.004 3 100727068.842 2  24598570.654    24598571.260    24598570.376
        22.100          17.800
 108768454.510 7  84754660.673 7  20697931.076    20697928.448    20697930.811
        47.000          45.000
 119087455.369 6  92795431.368 5  22661579.123    22661578.337    22661579.363
        36.000          32.000
 11  1  1  1 42  0.0000000  0 10G18G11G14G24G12G25G09G32G22G31
 118995464.381 5  92723742.559 4  22644075.919    22644074.494    22644075.078
        31.000          25.900
 128432515.970 3 100077296.789 2  24439884.219    24439882.225    24439883.690
        19.300          17.000
 107583186.406 7  83831070.208 8  20472382.582    20472381.152    20472382.003
        44.000          48.000
 124588207.008 4  97081727.707 3  23708343.690    23708344.217    23708342.959
        24.900          23.800
 118563436.106 6  92387099.006 5  22561867.119    22561865.739    22561866.755
        37.000          34.000
 118191155.428 6  92096988.761 5  22491039.915    22491042.421    22491039.985
        39.000          33.000
 124282825.755 4  96843751.211 3  23650239.347    23650238.578    23650238.652
        27.100          21.100
 129170397.717 3 100652260.303 3  24580302.338    24580302.545    24580301.580
        23.000          22.100
 108816349.248 7  84791981.237 7  20707046.135    20707042.662    20707044.894
        47.000          45.000
 118994078.735 6  92722670.365 5  22643810.654    22643809.107    22643810.753
        36.000          32.000
 11  1  1  1 42 30.0000000  0 10G18G11G14G24G12G25G09G32G22G31
 119090389.783 5  92797710.387 4  22662139.707    22662138.562    22662138.817
        32.000          25.900
 128426483.788 3 100072596.390 2  24438736.237    24438734.301    24438736.118
        22.100          17.800
 107571161.219 7  83821699.935 8  20470094.080    20470092.783    20470093.642
        44.000          48.000
 124550240.405 4  97052143.347 3  23701118.934    23701119.376    23701118.310
        25.900          23.000
 118564831.618 6  92388186.428 5  22562132.591    22562130.939    22562132.335
        37.000          34.000
 118118764.612 6  92040580.341 5  22477264.656    22477266.677    22477264.512
        39.000          33.000
 124395053.283 4  96931201.267 2  23671595.367    23671594.424    23671594.965
        27.100          17.000
 129074481.210 3 100577520.165 3  24562049.935    24562050.039    24562048.817
        23.000          23.000
 108864711.755 7  84829666.274 7  20716250.086    20716245.716    20716248.062
        47.000          45.000
 118900989.133 5  92650133.041 5  22626096.311    22626095.152    22626096.252
        35.100          34.000
 11  1  1  1 43  0.0000000  0 10G18G11G14G24G12G25G09G32G22G31
 119185591.801 5  92871893.743 4  22680255.958    22680254.926    22680255.402
        32.000          25.900
 128420979.311 3 100068307.180 2  24437688.886    24437687.836    24437688.391
        23.000          17.000
 107559427.565 7  83812556.827 8  20467861.239    20467859.909    20467860.778
        44.000          48.000
 124512796.818 4  97022966.524 3  23693993.042    23693994.066    23693992.671
        25.900          23.800
 118566837.437 6  92389749.417 5  22562514.419    22562512.808    22562514.125
        37.000          35.100
 118046783.495 6  91984491.142 5  22463567.233    22463569.355    22463566.861
        39.000          33.000
 124507421.207 4  97018760.713 2  23692977.733    23692977.241    23692977.424
        25.900          16.100
 128978654.217 4 100502849.807 3  24543813.790    24543815.080    24543813.612
        24.900          23.800
 108913541.310 7  84867715.254 7  20725541.046    20725537.607    20725539.808
        47.000          44.000
 118808188.117 6  92577820.620 5  22608436.752    22608436.058    22608436.950
        36.000          35.100
 11  1  1  1 43 30.0000000  0 10G18G11G14G24G12G25G09G32G22G31
 119281068.042 5  92946290.794 4  22698423.942    22698423.273    22698423.324
        30.100          25.900
 128416002.232 3 100064428.958 2  24436741.818    24436739.660    24436741.606
        23.000          16.100
 107547985.443 7  83803640.891 8  20465683.929    20465682.536    20465683.557
        44.000          48.000
 124475877.289 4  96994198.073 3  23686967.760    23686968.032    23686967.380
        27.100          23.000
 118569454.629 6  92391788.791 5  22563012.320    22563010.800    22563011.972
        38.000          34.000
 117975214.844 6  91928723.386 5  22449948.199    22449950.389    22449947.731
        39.000          34.000
 124619926.820 3  97106427.435 3  23714386.474    23714386.753    23714386.534
        23.800          19.300
 128882918.589 3 100428250.607 3  24525596.094    24525597.574    24525595.532
        22.100          23.000
 108962837.324 7  84906127.717 7  20734920.491    20734918.282    20734920.622
        47.000          44.000
 118715677.351 6  92505734.337 6  22590832.662    22590831.958    22590832.598
        37.000          36.000
 11  1  1  1 44  0.0000000  0 10G18G11G14G24G12G25G09G32G22G31
 119376816.726 4  93020900.134 4  22716643.354    22716643.850    22716643.590
        29.000          27.100
 128411552.533 3 100060961.640 2  24435894.885    24435893.505    24435894.691
        23.000          17.000
 107536835.251 7  83794952.439 8  20463562.127    20463560.765    20463561.695
        44.000          48.000
 124439482.971 4  96965838.847 3  23680042.412    23680042.397    23680041.815
        27.100          22.100
 118572683.176 6  92394304.551 5  22563626.669    22563625.243    22563626.497
        38.000          35.100
 117904061.458 6  91873279.225 5  22436408.097    22436410.381    22436407.770
        40.000          34.000
 124732567.554 3  97194199.424 3  23735820.461    23735821.476    23735820.876
        23.800          19.300
 128787276.093 2 100353724.004 3  24507395.611    24507397.037    24507394.296
        16.100          22.100
 109012599.113 7  84944903.125 7  20744390.479    20744387.731    20744390.038
        47.000          44.000
 118623458.178 6  92433875.276 5  22573283.285    22573282.892    22573283.520
        37.000          35.100
 11  1  1  1 44 30.0000000  0 10G18G11G14G24G12G25G09G32G22G31
 119472836.408 4  93095720.622 4  22734916.372    22734915.554    22734915.734
        29.000          27.100
 128407629.545 3 100057904.748 2  24435147.915    24435146.795    24435147.700
        22.100          17.000
 107525977.059 7  83786491.519 8  20461495.763    20461494.526    20461495.411
        44.000          48.000
 124403614.844 4  96937889.653 3  23673216.274    23673217.020    23673215.905
        27.100          21.100
 118576523.230 6  92397296.811 5  22564357.370    22564356.042    22564357.241
        38.000          34.000
 117833326.077 6  91818160.812 5  22422947.470    22422949.673    22422946.917
        39.000          34.000
 124845340.912 3  97282074.777 2  23757280.875    23757281.076    23757281.018
        23.000          17.000
 128691728.363 2 100279271.310 3  24489212.798    24489214.681    24489213.829
        17.800          19.900
 109062825.418 7  84984040.471 7  20753949.413    20753945.523    20753947.842
        47.000          44.000
 118531532.307 6  92362244.756 5  22555790.915    22555789.929    22555790.854
        36.000          35.100
 11  1  1  1 45  0.0000000  0 10G18G11G14G24G12G25G09G32G22G31
 119569125.185 5  93170750.796 4  22753239.474    22753238.850    22753238.807
        30.100          25.900
 128404232.952 3 100055258.066 2  24434502.175    24434500.681    24434501.973
        22.100          17.000
 107515411.015 7  83778258.245 8  20459485.310    20459483.934    20459484.823
        44.000          48.000
 124368274.068 4  96910351.402 3  23666491.767    23666492.182    23666491.270
        25.900          23.000
 118580974.855 6  92400765.615 5  22565204.679    22565203.049    22565204.592
        38.000          35.100
 117763011.365 6  91763370.191 5  22409566.707    22409569.351    22409566.460
        39.000          34.000
 124958244.700 3  97370051.769 3  23778766.794    23778766.310    23778765.752
        21.100          21.100
 128596277.386 2 100204893.947 3  24471050.131    24471050.913    24471050.377
        17.800          22.100
 109113515.953 7  85023539.557 7  20763595.946    20763591.547    20763594.030
        47.000          44.000
 118439900.984 6  92290843.753 5  22538354.176    22538353.191    22538354.108
        37.000          35.100
 11  1  1  1 45 30.0000000  0 10G18G11G14G24G12G25G09G32G22G31
 119665681.427 5  93245989.404 3  22771613.558    22771612.891    22771612.932
        30.100          23.800
 128401362.587 3 100053021.420 2  24433955.881    24433953.832    24433955.276
        19.900          16.100
 107505137.298 7  83770252.760 8  20457530.332    20457528.855    20457529.861
        44.000          48.000
 124333461.626 4  96883224.834 3  23659866.570    23659867.346    23659866.453
        25.900          23.000
 118586037.876 6  92404710.831 5  22566168.315    22566166.613    22566168.081
        38.000          34.000
 117693120.038 6  91708909.479 5  22396266.106    22396269.536    22396266.666
        40.000          34.000
 125071276.433 3  97458128.439 3  23800275.833    23800275.502    23800275.558
        22.100          21.100
 128500924.917 3 100130593.336 3  24452905.023    24452906.128    24452905.499
        22.100          19.900
 109164669.837 7  85063399.721 7  20773329.255    20773325.872    20773328.146
        47.000          44.000
 118348566.401 6  92219673.984 5  22520973.472    22520972.391    22520973.765
        38.000          35.100
 11  1  1  1 46  0.0000000  0 10G18G11G14G24G12G25G09G32G22G31
 119762503.342 5  93321435.030 4  22790037.542    22790037.722    22790037.490
        30.100          25.900
 128399017.971 3 100051194.439 2  24433509.550    24433507.621    24433509.627
        19.300          12.600
 107495156.066 7  83762475.175 8  20455631.124    20455629.403    20455630.632
        44.000          48.000
 124299178.560 4  96856510.748 3  23653342.910    23653343.656    23653342.511
        24.900          22.100
 118591712.348 6  92409132.515 5  22567248.098    22567246.068    22567247.824
        38.000          34.000
 117623654.783 6  91654780.777 5  22383048.052    22383050.712    22383047.771
        39.000          35.100
 125184433.621 3  97546302.876 3  23821809.818    23821808.937    23821809.106
        21.100          23.000
 128405672.704 4 100056370.866 1  24434780.999    24434779.855    24434779.944
        25.900          11.000
 109216286.015 7  85103620.112 7  20783150.533    20783148.160    20783150.434
        47.000          44.000
 118257529.464 6  92148736.142 5  22503649.725    22503648.407    22503649.744
        37.000          34.000
 11  1  1  1 46 30.0000000  0 10G18G11G14G24G12G25G09G32G22G31
 119859589.347 4  93397086.429 4  22808513.781    22808512.232    22808512.638
        29.000          24.900
 128397198.225 3 100049776.470 2  24433162.839    24433161.249    24433162.626
        19.300          15.100
 107485467.624 7  83754925.733 8  20453787.357    20453785.818    20453786.820
        44.000          48.000
 124265425.759 4  96830209.875 3  23646920.701    23646920.736    23646920.138
        25.900          23.000
 118597998.927 6  92414031.141 5  22568444.218    22568442.324    22568443.855
        38.000          34.000
 117554618.306 6  91600986.176 5  22369911.539    22369913.273    22369910.962
        40.000          34.000
 125297713.661 3  97634572.993 3  23843365.680    23843365.478    23843365.098
        23.800          23.000
 128310522.648 4  99982227.866 2  24416673.637    24416672.689    24416673.085
        27.100          12.600
 109268363.829 7  85144200.225 7  20793061.187    20793058.256    20793060.418
        46.000          44.000
 118166791.777 6  92078031.486 5  22486382.844    22486381.766    22486382.818
        37.000          34.000
 11  1  1  1 47  0.0000000  0 10G18G11G14G24G12G25G09G32G22G31
 119956937.414 4  93472942.024 3  22827037.428    22827036.830    22827037.464
        29.000          23.000
 128395903.683 3 100048767.720 1  24432916.128    24432914.892    24432916.266
        23.000          11.000
 107476072.037 7  83747604.494 8  20451999.361    20451997.914    20451998.851
        44.000          48.000
 124232204.499 4  96804323.160 3  23640598.640    23640598.543    23640598.142
        25.900          22.100
 118604897.030 6  92419406.299 5  22569756.762    22569754.945    22569756.481
        37.000          34.000
 117486013.308 6  91547527.793 5  22356855.705    22356858.124    22356855.598
        40.000          35.100
 125411114.328 4  97722937.155 3  23864944.686    23864944.765    23864944.539
        24.900          21.100
 128215476.451 4  99908165.840 2  24398586.783    24398586.430    24398586.667
        28.100          15.100
 109320902.460 7  85185139.410 7  20803060.051    20803055.972    20803058.288
        47.000          44.000
 118076354.837 6  92007561.180 5  22469173.211    22469172.393    22469173.256
        37.000          35.100
 11  1  1  1 47 30.0000000  0 10G18G11G14G24G12G25G09G32G22G31
 120054545.842 5  93549000.532 3  22845612.428    22845611.328    22845611.682
        30.100          23.800
 128395133.787 3 100048167.793 2  24432770.112    24432768.592    24432769.969
        22.100          13.900
 107466969.456 7  83740511.566 8  20450267.240    20450265.706    20450266.771
        44.000          48.000
 124199515.458 4  96778851.213 3  23634377.609    23634378.166    23634377.238
        24.900          23.000
 118612406.938 6  92425258.178 5  22571185.524    22571184.042    22571185.337
        37.000          35.100
 117417842.412 6  91494407.660 5  22343883.892    22343885.505    22343883.117
        40.000          34.000
 125524633.179 3  97811393.378 2  23886546.275    23886546.182    23886546.146
        23.000          15.100
 128120536.063 5  99834186.284 2  24380521.313    24380520.416    24380520.474
        30.100          17.800
 109373901.101 7  85226437.050 7  20813145.079    20813141.323    20813143.433
        46.000          44.000
 117986220.151 6  91937326.410 6  22452021.242    22452020.320    22452021.111
        37.000          36.000
 11  1  1  1 48  0.0000000  0 10G18G11G14G24G12G25G09G32G22G31
 120152412.981 5  93625260.578 4  22864236.423    22864235.139    22864235.377
        30.100          24.900
 128394887.484 3 100047975.886 2  24432723.265    24432721.705    24432723.320
        23.000          16.100
 107458160.070 7  83733647.101 8  20448590.682    20448589.312    20448590.283
        44.000          48.000
 124167359.515 4  96753794.641 3  23628258.126    23628258.694    23628257.990
        25.900          23.000
 118620528.439 6  92431586.623 5  22572730.967    22572729.719    22572730.833
        37.000          34.000
 117350108.276 6  91441627.849 5  22330994.013    22330996.185    22330993.615
        40.000          35.100
 125638267.640 3  97899939.724 2  23908170.337    23908169.657    23908170.372
        23.800          17.000
 128025703.254 4  99760290.550 3  24362474.631    24362474.704    24362473.927
        27.100          21.100
 109427358.775 7  85268092.401 7  20823316.508    20823314.082    20823315.980
        47.000          44.000
 117896389.125 6  91867328.255 5  22434926.473    22434925.907    22434926.693
        37.000          35.100
 11  1  1  1 48 30.0000000  0 10G18G11G14G24G12G25G09G32G22G31
 120250536.739 5  93701720.612 3  22882907.757    22882907.380    22882907.509
        30.100          23.800
 128395164.787 3 100048191.953 2  24432777.077    24432775.172    24432776.724
        23.000          17.800
 107449643.954 7  83727011.164 8  20446970.134    20446968.766    20446969.716
        44.000          48.000
 124135737.655 4  96729154.251 3  23622241.749    23622241.749    23622241.085
        27.100          23.000
 118629261.208 6  92438391.390 5  22574392.187    22574391.457    22574392.477
        37.000          35.100
 117282813.547 6  91389190.434 5  22318188.001    22318190.288    22318188.050
        41.000          34.000
 125752015.546 3  97988574.481 2  23929816.253    23929815.267    23929815.737
        23.000          17.000
 127930979.938 3  99686480.166 4  24344448.303    24344449.751    24344448.174
        22.100          24.900
 109481274.488 7  85310104.670 7  20833576.352    20833573.805    20833575.969
        47.000          44.000
 117806863.224 6  91797567.849 5  22417890.434    22417889.625    22417890.651
        37.000          35.100
 11  1  1  1 49  0.0000000  0 10G18G11G14G24G12G25G09G32G22G31
 120348915.471 5  93778379.338 3  22901628.882    22901628.027    22901628.533
        30.100          23.000
 128395964.926 3 100048815.459 3  24432928.650    24432927.229    24432928.692
        21.100          21.100
 107441421.538 7  83720604.082 8  20445405.667    20445404.053    20445405.150
        44.000          48.000
 124104650.819 4  96704930.737 3  23616325.678    23616325.951    23616325.504
        27.100          23.000
 118638605.430 6  92445672.602 5  22576170.388    22576169.603    22576170.677
        37.000          35.100
 117215960.870 6  91337097.453 5  22305466.295    22305468.536    22305466.099
        41.000          35.100
 125865874.564 3  98077295.784 2  23951483.477    23951482.100    23951482.546
        23.000          17.800
 127836367.788 3  99612756.488 4  24326445.104    24326445.626    24326443.908
        19.300          27.100
 109535647.698 7  85352473.419 7  20843924.246    20843920.663    20843922.881
        46.000          43.000
 117717643.922 6  91728046.341 5  22400912.896    22400911.766    22400912.857
        37.000          35.100
 11  1  1  1 49 30.0000000  0 10G18G11G14G24G12G25G09G32G22G31
 120447547.390 5  93855235.352 4  22920398.571    22920397.539    22920397.542
        31.000          24.900
 128397287.413 3 100049845.952 3  24433180.396    24433179.415    24433180.428
        21.100          21.100
 107433493.171 7  83714426.128 8  20443896.907    20443895.383    20443896.458
        44.000          48.000
 124074099.823 4  96681124.787 3  23610512.110    23610512.098    23610511.618
        27.100          23.000
 118648561.272 6  92453430.403 5  22578065.648    22578064.137    22578065.526
        38.000          35.100
 117149552.843 6  91285350.969 5  22292828.980    22292831.571    22292828.900
        40.000          35.100
 125979842.166 3  98166101.705 3  23973170.391    23973169.391    23973169.998
        23.800          19.300
 127741868.740 3  99539120.901 4  24308462.102    24308462.353    24308461.434
        19.900          27.100
 109590477.205 7  85395197.673 7  20854358.406    20854354.414    20854356.565
        46.000          44.000
 117628732.618 6  91658764.839 6  22383993.478    22383992.601    22383993.489
        37.000          36.000
 11  1  1  1 50  0.0000000  0 10G18G11G14G24G12G25G09G32G22G31
 120546431.019 4  93932287.484 3  22939214.704    22939214.235    22939214.384
        29.000          23.000
 128399131.752 3 100051283.081 3  24433531.614    24433530.123    24433531.435
        19.900          19.900
 107425858.456 7  83708476.993 8  20442443.985    20442442.617    20442443.491
        44.000          48.000
 124044085.642 4  96657737.103 3  23604800.682    23604800.854    23604800.166
        27.100          23.000
 118659128.061 6  92461664.269 5  22580076.187    22580075.177    22580076.301
        37.000          35.100
 117083592.112 6  91233953.042 5  22280276.936    22280279.770    22280276.956
        40.000          35.100
 126093916.026 4  98254990.456 2  23994877.414    23994877.212    23994877.546
        27.100          17.800
 127647484.619 2  99465574.888 3  24290500.263    24290501.056    24290500.166
        17.000          23.000
 109645762.002 7  85438276.680 7  20864877.812    20864874.799    20864876.840
        46.000          43.000
 117540130.892 6  91589724.583 6  22367133.264    22367132.291    22367133.245
        38.000          36.000
 11  1  1  1 50 30.0000000  0 10G18G11G14G24G12G25G09G32G22G31
 120645564.262 4  94009534.142 4  22958079.331    22958078.576    22958078.756
        28.100          24.900
 128401497.296 3 100053126.350 3  24433980.705    24433979.799    24433980.520
        19.300          19.300
 107418517.868 7  83702757.054 8  20441047.087    20441045.660    20441046.623
        44.000          48.000
 124014609.095 4  96634768.363 3  23599191.716    23599191.719    23599191.355
        28.100          23.000
 118670305.961 6  92470374.331 5  22582203.077    22582202.002    22582203.368
        38.000          34.000
 117018081.372 6  91182905.773 5  22267811.235    22267813.530    22267810.719
        41.000          35.100
 126208093.669 3  98343960.054 2  24016604.972    24016605.447    24016604.803
        23.800          17.000
 127553217.400 3  99392119.952 4  24272562.898    24272562.970    24272562.405
        23.000          25.900
 109701501.127 7  85481709.730 7  20875483.853    20875481.438    20875483.704
        47.000          43.000
 117451840.098 6  91520926.590 5  22350331.885    22350330.876    22350331.906
        38.000          35.100
 11  1  1  1 51  0.0000000  0 10G18G11G14G24G12G25G09G32G22G31
 120744944.793 4  94086973.465 3  22976991.161    22976990.506    22976990.449
        27.100          23.800
 128404383.544 3 100055375.366 3  24434530.064    24434528.866    24434530.021
        19.900          19.900
 107411471.632 7  83697266.481 8  20439706.396    20439704.756    20439705.899
        44.000          48.000
 123985670.848 4  96612219.080 3  23593684.558    23593685.023    23593684.082
        27.100          21.100
 118682094.287 6  92479560.045 5  22584446.839    22584445.490    22584446.788
        38.000          34.000
 116953022.963 6  91132210.956 5  22255430.715    22255433.219    22255430.523
        41.000          35.100
 126322372.769 3  98433008.697 3  24038351.775    24038351.984    24038351.423
        23.000          19.300
 127459068.890 3  99318757.494 3  24254647.831    24254647.229    24254646.316
        23.000          23.800
 109757693.630 7  85525496.078 7  20886177.969    20886174.646    20886176.803
        46.000          43.000
 117363861.765 6  91452372.078 6  22333589.997    22333589.061    22333589.925
        37.000          36.000
 11  1  1  1 51 30.0000000  0 10G18G11G14G24G12G25G09G32G22G31
 120844571.817 4  94164604.863 3  22995948.786    22995948.797    22995948.664
        25.900          23.000
 128407789.584 3 100058029.404 2  24435178.523    24435176.694    24435178.341
        19.900          16.100
 107404719.804 7  83692005.316 8  20438421.297    20438420.082    20438420.949
        44.000          48.000
 123957271.849 4  96590089.982 3  23588280.275    23588281.161    23588280.016
        27.100          23.000
 118694493.079 6  92489221.443 5  22586806.451    22586804.856    22586806.232
        38.000          35.100
 116888419.509 6  91081870.655 5  22243136.916    22243139.487    22243136.764
        41.000          35.100
 126436751.124 3  98522134.678 3  24060117.016    24060117.612    24060116.777
        21.100          19.300
 127365041.047 4  99245489.047 3  24236755.132    24236754.380    24236753.930
        28.100          23.000
 109814339.022 7  85569635.321 7  20896957.886    20896954.003    20896956.173
        46.000          43.000
 117276197.096 6  91384061.993 6  22316908.022    22316907.120    22316907.976
        38.000          37.000
 11  1  1  1 52  0.0000000  0 10G18G11G14G24G12G25G09G32G22G31
 120944442.954 4  94242426.490 3  23014954.979    23014953.408    23014954.110
        29.000          23.000
 128411715.035 3 100061088.194 2  24435925.944    24435924.187    24435925.427
        21.100          12.600
 107398262.487 7  83686973.640 8  20437192.603    20437191.329    20437192.114
        44.000          48.000
 123929412.474 4  96568381.373 3  23582979.113    23582978.944    23582978.698
        27.100          22.100
 118707502.691 6  92499358.805 5  22589281.772    22589280.380    22589281.824
        38.000          34.000
 116824273.571 6  91031886.848 6  22230931.103    22230932.893    22230930.602
        41.000          36.000
 126551226.390 3  98611336.175 2  24081901.233    24081900.757    24081900.804
        21.100          17.000
 127271135.652 4  99172316.000 3  24218884.737    24218884.660    24218884.145
        27.100          21.100
 109871435.843 7  85614126.324 7  20907822.608    20907819.298    20907821.373
        46.000          43.000
 117188847.548 6  91315997.440 6  22300286.006    22300284.975    22300286.053
        38.000          37.000
 11  1  1  1 52 30.0000000  0 10G18G11G14G24G12G25G09G32G22G31
 121044556.185 4  94320436.773 3  23034005.334    23034004.905    23034004.808
        29.000          23.000
 128416159.148 3 100064551.119 2  24436772.400    24436769.651    24436772.063
        22.100          15.100
 107392100.140 7  83682171.818 8  20436019.946    20436018.599    20436019.426
        44.000          48.000
 123902093.636 4  96547093.969 3  23577780.830    23577780.154    23577780.250
        28.100          22.100
 118721122.275 6  92509971.474 5  22591873.614    22591872.563    22591873.629
        38.000          35.100
 116760587.725 6  90982261.560 5  22218811.406    22218813.767    22218811.269
        41.000          35.100
 126665796.218 3  98700611.362 2  24103701.698    24103702.863    24103702.312
        22.100          17.000
 127177354.601 4  99099239.827 3  24201038.290    24201038.523    24201038.050
        27.100          19.900
 109928983.255 7  85658968.432 7  20918772.932    20918770.120    20918772.303
        46.000          43.000
 117101814.456 6  91248179.473 6  22283724.271    22283722.979    22283724.229
        38.000          36.000
 11  1  1  1 53  0.0000000  0 10G18G11G14G24G12G25G09G32G22G31
 121144910.006 4  94398634.497 3  23053101.403    23053101.528    23053101.424
        28.100          23.000
 128421121.211 2 100068417.715 2  24437715.675    24437714.643    24437715.886
        17.800          16.100
 107386233.016 7  83677600.041 8  20434903.513    20434902.021    20434902.994
        44.000          48.000
 123875316.088 4  96526228.338 3  23572685.109    23572685.071    23572684.640
        28.100          22.100
 118735351.118 6  92521058.891 5  22594581.154    22594579.939    22594581.032
        37.000          35.100
 116697364.446 6  90932996.718 5  22206780.226    22206782.424    22206780.083
        41.000          35.100
 126780458.461 3  98789958.554 2  24125522.429    24125522.105    24125521.918
        21.100          13.900
 127083699.728 4  99026261.982 2  24183216.157    24183216.135    24183216.216
        27.100          16.100
 109986979.980 7  85704160.686 7  20929809.248    20929806.557    20929808.735
        46.000          43.000
 117015099.355 6  91180609.298 6  22267222.768    22267221.572    22267222.678
        39.000          36.000
 11  1  1  1 53 30.0000000  0 10G18G11G14G24G12G25G09G32G22G31
 121245502.585 4  94477018.297 3  23072244.707    23072243.787    23072243.978
        29.000          23.000
 128426600.452 3 100072687.230 2  24438758.270    24438757.017    24438757.705
        19.900          12.600
 107380661.133 7  83673258.313 8  20433843.153    20433841.751    20433842.673
        44.000          48.000
 123849080.635 4  96505785.108 3  23567692.155    23567692.611    23567691.729
        27.100          23.800
 118750189.141 6  92532620.996 5  22597404.378    22597403.137    22597404.494
        37.000          34.000
 116634606.273 7  90884094.294 5  22194838.246    22194839.835    22194837.748
        42.000          35.100
 126895210.682 3  98879375.900 2  24147359.631    24147358.936    24147359.156
        21.100          13.900
 126990173.014 4  98953384.018 2  24165418.643    24165418.762    24165418.320
        24.900          17.800
 110045425.491 7  85749702.648 7  20940932.265    20940928.332    20940930.450
        46.000          43.000
 116928703.459 6  91113287.855 6  22250782.214    22250781.090    22250782.218
        39.000          37.000
 11  1  1  1 54  0.0000000  0 10G18G11G14G24G12G25G09G32G22G31
 121346331.699 4  94555586.383 3  23091431.526    23091430.735    23091431.115
        29.000          23.800
 128432596.158 3 100077359.215 1  24439898.974    24439897.149    24439898.417
        19.900           9.000
 107375384.437 7  83669146.596 8  20432839.041    20432837.700    20432838.562
        44.000          48.000
 123823387.940 4  96485764.844 3  23562803.156    23562803.572    23562802.510
        27.100          23.800
 118765636.734 6  92544658.083 5  22600344.114    22600342.713    22600344.077
        37.000          34.000
 116572315.634 7  90835556.171 5  22182984.624    22182986.321    22182984.385
        42.000          35.100
 127010050.613 3  98968861.551 2  24169212.627    24169212.002    24169212.156
        21.100          13.900
 126896776.361 4  98880607.381 2  24147646.340    24147645.798    24147646.257
        24.900          17.800
 110104318.286 7  85795593.130 7  20952138.982    20952135.234    20952137.462
        46.000          42.000
 116842628.138 6  91046216.203 6  22234401.969    22234401.547    22234402.141
        38.000          37.000
 11  1  1  1 54 30.0000000  0 10G18G11G14G24G12G25G09G32G22G31
 121447395.826 4  94634337.631 3  23110664.168    23110662.715    23110663.265
        29.000          23.000
 128439107.851 3 100082433.254 2  24441138.319    24441136.527    24441137.437
        19.300          12.600
 107370403.218 7  83665265.125 8  20431891.132    20431889.766    20431890.730
        44.000          48.000
 123798238.625 4  96466167.970 3  23558017.217    23558017.708    23558017.044
        27.100          22.100
 118781692.422 6  92557169.016 5  22603399.623    22603398.103    22603399.581
        37.000          34.000
 116510495.049 7  90787384.340 6  22171220.632    22171222.496    22171220.241
        42.000          36.000
 127124975.958 3  99058413.781 2  24191082.204    24191082.204    24191082.121
        19.300          15.100
 126803511.681 3  98807933.606 3  24129897.677    24129898.829    24129898.082
        23.000          21.100
 110163657.321 7  85841831.347 7  20963429.444    20963426.972    20963429.291
        46.000          42.000
 116756875.089 6  90979395.696 6  22218083.474    22218083.156    22218083.897
        38.000          37.000
 11  1  1  1 55  0.0000000  0 10G18G11G14G24G12G25G09G32G22G31
 121548692.955 4  94713270.405 3  23129938.965    23129938.801    23129939.057
        28.100          22.100
 128446134.498 2 100087908.547 1  24442474.158    24442473.504    24442474.263
        17.000           9.000
 107365718.030 7  83661614.328 8  20430999.775    20430998.184    20430999.240
        44.000          48.000
 123773633.448 4  96446995.094 3  23553334.676    23553335.887    23553334.463
        27.100          23.000
 118798356.077 6  92570153.687 5  22606570.322    22606569.149    22606570.357
        37.000          34.000
 116449146.971 7  90739580.687 6  22159546.826    22159548.394    22159546.287
        42.000          36.000
 127239984.533 3  99148030.820 2  24212967.317    24212967.188    24212967.276
        22.100          17.000
 126710380.860 3  98735364.137 3  24112175.618    24112176.207    24112175.910
        23.000          21.100
 110223441.693 7  85888416.575 7  20974807.123    20974803.609    20974805.932
        46.000          42.000
 116671445.164 6  90912826.940 6  22201827.545    22201826.362    22201827.514
        39.000          37.000
 11  1  1  1 55 30.0000000  0 10G18G11G14G24G12G25G09G32G22G31
 121650221.320 4  94792383.389 3  23149260.049    23149258.496    23149259.101
        27.100          21.100
 128453675.186 2 100093784.408 2  24443909.832    24443908.722    24443909.306
        17.000          15.100
 107361328.738 7  83658194.102 8  20430164.250    20430162.925    20430163.834
        43.000          48.000
 123749572.961 4  96428246.662 4  23548756.321    23548757.429    23548755.675
        27.100          24.900
 118815628.008 6  92583612.335 5  22609857.638    22609856.104    22609857.438
        38.000          35.100
 116388273.811 7  90692147.097 6  22147962.221    22147964.462    22147962.096
        42.000          36.000
 127355074.041 3  99237710.960 2  24234868.150    24234867.944    24234868.339
        23.000          17.000
 126617385.826 3  98662900.484 3  24094479.903    24094480.529    24094479.615
        23.800          23.000
 110283670.498 7  85935348.118 7  20986268.732    20986264.721    20986266.954
        46.000          42.000
 116586339.903 6  90846511.187 6  22185632.170    22185631.579    22185632.126
        39.000          37.000
 11  1  1  1 56  0.0000000  0 10G18G11G14G24G12G25G09G32G22G31
 121751978.797 4  94871674.867 3  23168623.744    23168622.314    23168623.334
        28.100          21.100
 128461729.147 2 100100060.219    24445443.733    24445441.488    24445443.177
        17.000           3.000
 107357235.705 7  83655004.727 8  20429385.635    20429384.043    20429385.037
        44.000          48.000
 123726057.459 4  96409922.896 3  23544282.177    23544282.031    23544281.472
        28.100          23.800
 118833507.233 6  92597544.206 5  22613260.171    22613258.081    22613259.941
        38.000          34.000
 116327878.014 6  90645085.466 6  22136469.900    22136471.521    22136469.100
        41.000          36.000
 127470242.279 3  99327452.444 2  24256784.622    24256784.243    24256784.147
        23.000          16.100
 126524528.524 4  98590544.155 3  24076810.460    24076810.283    24076809.751
        24.900          23.800
 110344342.358 7  85982624.907 7  20997813.545    20997810.307    20997812.427
        46.000          42.000
 116501560.539 6  90780449.385 6  22169499.387    22169498.546    22169499.283
        39.000          37.000
 11  1  1  1 56 30.0000000  0 10G18G11G14G24G12G25G09G32G22G31
 121853963.509 4  94951143.439 3  23188031.293    23188029.573    23188030.365
        28.100          21.100
 128470295.650 2 100106735.429 2  24447072.732    24447071.037    24447072.459
        17.000          13.900
 107353438.942 7  83652046.205 8  20428663.201    20428661.564    20428662.696
        44.000          48.000
 123703087.915 4  96392024.553 3  23539910.891    23539911.124    23539910.344
        28.100          23.000
 118851993.322 6  92611948.949 5  22616777.381    22616776.039    22616777.451
        37.000          34.000
 116267961.981 7  90598397.691 6  22125067.476    22125069.775    22125067.529
        42.000          36.000
 127585487.000 3  99417253.524 2  24278714.167    24278714.478    24278714.255
        21.100          15.100
 126431810.915 4  98518296.679 3  24059167.127    24059166.171    24059166.100
        25.900          23.000
 110405455.960 7  86030245.898 7  21009442.593    21009439.985    21009442.024
        46.000          42.000
 116417108.464 6  90714642.605 6  22153428.525    22153427.548    22153428.739
        40.000          37.000
 11  1  1  1 57  0.0000000  0 10G18G11G14G24G12G25G09G32G22G31
 121956173.824 4  95030787.804 3  23207480.166    23207480.071    23207480.364
        29.000          22.100
 128479373.926 2 100113809.369 2  24448800.333    24448799.131    24448799.974
        17.000          17.800
 107349938.658 7  83649318.708 8  20427996.993    20427995.493    20427996.510
        44.000          48.000
 123680664.740 4  96374551.935 3  23535644.064    23535643.937    23535643.818
        29.000          23.800
 118871085.196 6  92626825.731 5  22620410.650    22620409.088    22620410.513
        37.000          34.000
 116208528.128 7  90552085.623 6  22113758.119    22113759.662    22113757.656
        42.000          36.000
 127700806.238 3  99507112.685 2  24300659.812    24300658.436    24300658.716
        23.000          15.100
 126339234.893 4  98446159.530 4  24041550.330    24041550.074    24041549.358
        25.900          24.900
 110467010.411 7  86078210.422 7  21021156.912    21021153.241    21021155.517
        46.000          42.000
 116332984.891 6  90649091.781 6  22137420.307    22137419.243    22137420.401
        40.000          37.000
 11  1  1  1 57 30.0000000  0 10G18G11G14G24G12G25G09G32G22G31
 122058607.782 4  95110606.426 3  23226974.004    23226972.717    23226972.660
        27.100          23.000
 128488962.923 2 100121281.310 2  24450624.187    24450624.648    24450624.753
        15.100          16.100
 107346735.209 7  83646822.516 8  20427387.509    20427385.859    20427386.936
        44.000          48.000
 123658788.340 4  96357505.385 3  23531480.991    23531481.004    23531480.537
        27.100          23.000
 118890782.998 6  92642174.678 5  22624158.864    22624157.256    22624158.769
        37.000          34.000
 116149578.819 7  90506151.138 6  22102539.677    22102542.311    22102539.630
        42.000          37.000
 127816197.258 4  99597027.768 2  24322616.825    24322616.581    24322616.767
        24.900          15.100
 126246802.355 4  98374134.178 4  24023959.977    24023960.452    24023959.344
        25.900          24.900
 110529004.610 7  86126517.598 7  21032953.391    21032950.293    21032952.455
        46.000          42.000
 116249191.398 6  90583798.190 6  22121474.607    22121474.043    22121474.649
        39.000          38.000
 11  1  1  1 58  0.0000000  0 10G18G11G14G24G12G25G09G32G22G31
 122161263.559 3  95190597.865 3  23246506.089    23246507.961    23246506.610
        23.800          23.000
 128499061.667 3 100129150.442 2  24452546.536    24452546.056    24452546.366
        19.300          15.100
 107343828.688 7  83644557.695 8  20426834.449    20426832.798    20426833.983
        44.000          48.000
 123637459.374 4  96340885.414 4  23527422.522    23527422.493    23527421.981
        28.100          24.900
 118911086.150 6  92657995.313 5  22628022.648    22628021.108    22628022.492
        37.000          34.000
 116091116.425 7  90460596.054 6  22091414.912    22091417.363    22091414.782
        42.000          37.000
 127931658.209 3  99686997.327 3  24344588.550    24344588.154    24344588.423
        23.000          19.300
 126154515.288 4  98302222.196 4  24006398.912    24006399.185    24006398.609
        28.100          24.900
 110591437.214 7  86175166.385 6  21044833.877    21044830.723    21044832.840
        45.000          41.000
 116165728.895 6  90518762.503 6  22105592.596    22105591.615    22105592.563
        40.000          38.000
 11  1  1  1 58 30.0000000  0 10G18G11G14G24G12G25G09G32G22G31
 122264139.234 4  95270760.642 3  23266085.263    23266084.270    23266084.151
        24.900          21.100
 128509669.292 3 100137416.109 2  24454564.997    24454564.031    24454565.396
        19.300          15.100
 107341219.171 7  83642524.307 8  20426337.901    20426336.332    20426337.301
        44.000          48.000
 123616678.266 4  96324692.329 4  23523467.737    23523467.940    23523467.411
        29.000          24.900
 118931993.380 6  92674286.669 5  22632000.628    22631999.348    22632000.671
        37.000          34.000
 116033143.293 7  90415422.213 6  22080383.244    22080385.259    22080382.717
        42.000          37.000
 128047186.829 3  99777019.634 2  24366572.473    24366572.527    24366572.741
        23.000          17.800
 126062375.736 4  98230425.134 4  23988865.786    23988865.243    23988865.022
        25.900          24.900
 110654306.967 7  86224155.795 7  21056797.428    21056794.648    21056796.488
        45.000          42.000
 116082598.926 6  90453985.932 6  22089773.265    22089772.263    22089773.413
        40.000          37.000
 11  1  1  1 59  0.0000000  0 10G18G11G14G24G12G25G09G32G22G31
 122367232.842 4  95351093.268 3  23285702.265    23285702.316    23285701.965
        24.900          22.100
 128520784.853 2 100146077.566 2  24456681.326    24456679.132    24456680.789
        16.100          12.600
 107338906.863 7  83640722.509 8  20425897.628    20425896.284    20425897.172
        44.000          48.000
 123596445.336 4  96308926.406 4  23519617.415    23519617.709    23519617.113
        28.100          24.900
 118953504.740 6  92691048.764 5  22636094.195    22636093.064    22636094.126
        37.000          34.000
 115975661.714 7  90370631.406 6  22069444.190    22069446.683    22069444.016
        42.000          37.000
 128162780.906 3  99867092.946 2  24388570.302    24388569.144    24388569.863
        22.100          17.000
 125970385.532 4  98158744.447 3  23971361.062    23971361.062    23971360.004
        27.100          23.800
 110717612.859 7  86273485.050 6  21068844.553    21068841.241    21068843.371
        46.000          41.000
 115999802.705 6  90389469.420 6  22074018.264    22074016.599    22074018.038
        40.000          37.000
 11  1  1  1 59 30.0000000  0 10G18G11G14G24G12G25G09G32G22G31
 122470542.442 4  95431594.187 3  23305362.873    23305361.476    23305361.899
        28.100          22.100
 128532407.524 3 100155134.179 2  24458892.028    24458891.382    24458892.377
        19.300          15.100
 107336892.102 7  83639152.566 8  20425514.434    20425512.812    20425513.843
        44.000          48.000
 123576761.249 4  96293588.145 4  23515872.128    23515871.820    23515871.492
        27.100          24.900
 118975619.488 6  92708281.046 5  22640303.166    22640301.289    22640302.649
        37.000          34.000
 115918674.056 7  90326225.468 6  22058600.408    22058602.191    22058599.987
        42.000          36.000
 128278438.275 3  99957215.592 2  24410578.773    24410578.226    24410578.469
        19.300          17.800
 125878546.711 4  98087181.749 3  23953884.235    23953883.938    23953883.229
        27.100          23.000
 110781353.955 7  86323153.421 6  21080974.327    21080970.745    21080972.823
        45.000          41.000
 115917341.296 6  90325213.792 6  22058326.223    22058324.931    22058326.177
        41.000          38.000
 11  1  1  2  0  0.0000000  0 10G18G11G14G24G12G25G09G32G22G31
 122574066.016 4  95512261.879 3  23325061.663    23325061.144    23325061.484
        27.100          19.900
 128544536.381 2 100164585.199 2  24461200.775    24461199.523    24461200.225
        15.100          13.900
 107335175.281 7  83637814.788 8  20425187.598    20425186.074    20425187.119
        44.000          48.000
 123557626.145 4  96278677.672 4  23512231.038    23512230.900    23512230.137
        29.000          25.900
 118998336.372 6  92725982.509 5  22644625.741    22644624.011    22644625.382
        37.000          34.000
 115862182.605 7  90282206.174 6  22047850.582    22047852.238    22047850.179
        42.000          37.000
 128394156.800 3 100047385.869 2  24432600.153    24432598.872    24432599.532
        22.100          16.100
 125786861.223 4  98015738.501 4  23936436.789    23936436.909    23936436.209
        27.100          24.900
 110845528.619 7  86373159.642 6  21093185.606    21093182.937    21093184.796
        45.000          41.000
 115835216.149 6  90261220.202 6  22042697.498    22042697.086    22042697.820
        40.000          38.000
 11  1  1  2  0 30.0000000  0 10G18G11G14G24G12G25G09G32G22G31
 122677801.744 4  95593094.846 3  23344802.795    23344801.583    23344802.096
        25.900          22.100
 128557169.928 2 100174429.510 1  24463604.356    24463602.944    24463603.963
        17.000           9.000
 107333756.258 7  83636709.053 8  20424917.492    20424916.084    20424917.057
        44.000          48.000
 123539040.674 4  96264195.478 4  23508693.594    23508694.035    23508693.180
        28.100          24.900
 119021655.280 6  92744153.099 5  22649062.574    22649061.375    22649062.754
        37.000          33.000
 115806189.592 7  90238575.285 6  22037195.184    22037197.165    22037194.987
        43.000          37.000
 128509934.314 3 100137602.080 2  24454630.846    24454629.922    24454630.856
        21.100          15.100
 125695330.986 4  97944416.252 4  23919019.094    23919019.362    23919018.050
        28.100          24.900
 110910135.716 7  86423502.827 6  21105479.700    21105477.283    21105479.120
        45.000          41.000
 115753428.471 6  90197489.583 6  22027133.944    22027133.226    22027134.114
        40.000          38.000
 11  1  1  2  1  0.0000000  0 10G18G11G14G24G12G25G09G32G22G31
 122781747.518 4  95674091.504 3  23364583.143    23364582.121    23364582.362
        24.900          21.100
 128570307.334 2 100184666.453 1  24466103.855    24466103.267    24466104.598
        13.900          11.000
 107332635.451 7  83635835.700 8  20424704.312    20424702.819    20424703.806
        44.000          48.000
 123521005.263 4  96250141.907 4  23505262.393    23505262.342    23505261.669
        29.000          27.100
 119045575.395 6  92762792.156 5  22653614.796    22653612.889    22653614.601
        37.000          33.000
 115750697.334 7  90195334.583 6  22026635.475    22026637.279    22026634.988
        42.000          37.000
 128625768.747 3 100227862.694 2  24476673.106    24476672.796    24476673.288
        19.300          15.100
 125603958.046 4  97873216.569 3  23901630.719    23901631.251    23901630.439
        27.100          23.800
 110975174.135 7  86474182.105 6  21117857.238    21117853.603    21117855.668
        45.000          41.000
 115671979.486 6  90134022.873 6  22011634.962    22011633.943    22011635.112
        41.000          38.000
 11  1  1  2  1 30.0000000  0 10G18G11G14G24G12G25G09G32G22G31
 122885901.528 4  95755250.413 3  23384401.672    23384401.784    23384402.103
        25.900          23.000
 128583947.843 2 100195295.425 3  24468700.251    24468699.969    24468700.263
        17.000          19.300
 107331812.638 7  83635194.544 8  20424547.748    20424546.258    20424547.139
        44.000          48.000
 123503520.281 4  96236517.242 4  23501934.498    23501935.220    23501934.206
        28.100          25.900
 119070095.981 6  92781899.109 5  22658281.284    22658279.142    22658280.939
        37.000          33.000
 115695708.071 7  90152485.831 6  22016171.277    22016173.035    22016170.982
        43.000          37.000
 128741658.126 2 100318166.103 2  24498726.844    24498726.215    24498726.122
        17.800          16.100
 125512744.373 4  97802140.985 3  23884273.939    23884273.884    23884273.252
        28.100          23.800
 111040642.391 7  86525196.316 6  21130315.265    21130311.715    21130313.879
        45.000          41.000
 115590870.415 6  90070821.023 6  21996200.676    21996199.436    21996200.508
        40.000          38.000
 11  1  1  2  2  0.0000000  0 10G18G11G14G24G12G25G09G32G22G31
 122990261.833 4  95836570.076 3  23404261.706    23404260.574    23404261.225
        24.900          19.300
 128598090.242 2 100206315.434 2  24471392.853    24471389.988    24471392.573
        12.600          16.100
 107331288.321 7  83634785.978 8  20424448.077    20424446.510    20424447.476
        44.000          48.000
 123486585.805 4  96223321.536 4  23498712.770    23498712.950    23498711.845
        28.100          27.100
 119095215.908 6  92801473.079 5  22663061.154    22663059.380    22663060.943
        37.000          33.000
 115641223.997 7  90110030.740 6  22005802.828    22005805.100    22005802.813
        43.000          36.000
 128857600.358 2 100408510.691 2  24520788.410    24520788.949    24520788.607
        15.100          13.900
 125421692.020 4  97731191.075 4  23866947.574    23866947.216    23866946.592
        27.100          24.900
 111106539.175 7  86576544.452 6  21142853.905    21142851.554    21142853.737
        46.000          41.000
 115510102.411 6  90007884.950 6  21980831.032    21980829.572    21980830.971
        41.000          38.000
 11  1  1  2  2 30.0000000  0 10G18G11G14G24G12G25G09G32G22G31
 123094826.618 3  95918049.104 3  23424159.699    23424158.920    23424159.034
        23.800          19.300
 128612733.311 2 100217725.634 1  24474178.399    24474176.045    24474177.720
        16.100          11.000
 107331062.745 7  83634610.205 8  20424404.990    20424403.532    20424404.537
        44.000          48.000
 123470202.255 4  96210555.132 4  23495594.245    23495594.421    23495593.813
        29.000          24.900
 119120935.000 6  92821513.929 5  22667955.142    22667953.616    22667955.078
        36.000          33.000
 115587247.316 7  90067971.011 6  21995531.948    21995533.547    21995531.617
        43.000          36.000
 128973592.932 2 100498894.482 2  24542861.243    24542861.621    24542861.131
        15.100          13.900
 125330802.854 4  97660368.359 3  23849652.226    23849651.074    23849650.828
        25.900          23.000
 111172863.416 7  86628225.698 6  21155475.822    21155472.679    21155474.717
        45.000          41.000
 115429676.686 6  89945215.571 6  21965526.547    21965525.130    21965526.377
        41.000          38.000
 11  1  1  2  3  0.0000000  0 10G18G11G14G24G12G25G09G32G22G31
 123199594.040 3  95999685.950 3  23444095.297    23444095.643    23444095.381
        23.000          19.300
 128627876.002 2 100229525.145 2  24477059.408    24477058.178    24477058.882
        17.800          12.600
 107331135.948 7  83634667.260 8  20424419.025    20424417.384    20424418.505
        44.000          48.000
 123454369.750 4  96198218.119 4  23492582.305    23492581.955    23492581.619
        29.000          24.900
 119147251.889 6  92842020.600 5  22672963.448    22672961.779    22672963.195
        37.000          33.000
 115533780.256 7  90026308.399 6  21985357.267    21985359.048    21985357.119
        43.000          36.000
 129089633.912 2 100589316.014 2  24564943.842    24564943.835    24564943.706
        17.800          12.600
 125240079.010 4  97589674.464 3  23832388.427    23832386.993    23832386.987
        27.100          23.000
 111239613.717 7  86680238.936 6  21168178.555    21168174.805    21168176.821
        45.000          41.000
 115349594.619 6  89882813.991 6  21950286.947    21950286.149    21950286.881
        40.000          39.000
 11  1  1  2  3 30.0000000  0 10G18G11G14G24G12G25G09G32G22G31
 123304561.851 3  96081478.990 3  23464070.337    23464070.457    23464070.139
        23.800          19.300
 128643516.940 3 100241712.850 1  24480036.507    24480035.489    24480036.202
        19.300          11.000
 107331508.303 7  83634957.427 8  20424489.994    20424488.279    20424489.436
        44.000          48.000
 123439088.796 4  96186310.871 4  23489673.636    23489673.887    23489673.083
        28.100          24.900
 119174166.291 6  92862992.867 5  22678084.889    22678083.353    22678084.857
        37.000          34.000
 115480824.998 7  89985044.583 6  21975280.662    21975281.867    21975280.015
        43.000          36.000
 129205721.292 3 100679773.727 1  24587035.117    24587033.969    24587034.956
        19.300           6.500
 125149522.382 4  97519110.856 3  23815155.986    23815155.031    23815154.478
        25.900          23.800
 111306789.022 7  86732583.336 6  21180960.536    21180957.751    21180959.716
        45.000          41.000
 115269857.137 6  89820680.924 6  21935113.575    21935112.660    21935113.643
        41.000          39.000
 11  1  1  2  4  0.0000000  0 10G18G11G14G24G12G25G09G32G22G31
 123409728.219 4  96163426.723 3  23484083.739    23484082.845    23484082.986
        24.900          21.100
 128659655.278 2 100254288.176 2  24483105.850    24483104.779    24483106.344
        12.600          13.900
 107332179.857 7  83635480.737 8  20424617.767    20424616.092    20424617.213
        44.000          48.000
 123424359.524 4  96174833.530 4  23486870.287    23486871.241    23486870.059
        29.000          27.100
 119201677.071 6  92884429.830 5  22683319.853    22683318.697    22683320.001
        37.000          34.000
 115428383.659 7  89944181.238 6  21965300.851    21965302.666    21965300.704
        43.000          36.000
 129321853.216 3 100770266.177 2  24609134.298    24609133.414    24609133.775
        22.100          13.900
 125059134.991 4  97448679.144 4  23797954.757    23797954.814    23797953.936
        27.100          24.900
 111374387.651 7  86785257.599 6  21193824.294    21193821.212    21193823.391
        45.000          40.000
 115190465.310 6  89758817.194 6  21920005.940    21920004.631    21920005.959
        41.000          38.000
 11  1  1  2  4 30.0000000  0 10G18G11G14G24G12G25G09G32G22G31
 123515091.212 3  96245527.707 2  23504134.181    23504132.621    23504133.245
        23.000          17.000
 128676289.990 2 100267250.280 1  24486273.044    24486271.434    24486272.532
        16.100          11.000
 107333150.830 7  83636237.356 8  20424802.391    20424800.815    20424801.879
        44.000          48.000
 123410182.086 4  96163786.172 4  23484172.747    23484173.371    23484172.309
        28.100          25.900
 119229783.201 6  92906330.726 5  22688668.557    22688666.859    22688668.626
        37.000          34.000
 115376458.372 7  89903720.005 6  21955420.053    21955421.853    21955419.724
        43.000          37.000
 129438027.413 3 100860791.552 2  24631240.930    24631240.670    24631241.363
        21.100          13.900
 124968918.905 4  97378380.897 4  23780787.212    23780787.074    23780786.636
        27.100          24.900
 111442408.296 7  86838260.684 6  21206768.804    21206765.317    21206767.352
        45.000          41.000
 115111420.440 6  89697223.814 6  21904963.994    21904962.722    21904963.990
        41.000          38.000
 11  1  1  2  5  0.0000000  0 10G18G11G14G24G12G25G09G32G22G31
 123620648.649 4  96327780.199 2  23524220.731    23524219.945    23524220.090
        24.900          17.800
 128693419.702 2 100280598.090 2  24489533.230    24489531.548    24489532.749
        17.800          16.100
 107334421.468 7  83637227.474 8  20425044.182    20425042.669    20425043.672
        44.000          48.000
 123396556.789 4  96153169.054 4  23481580.045    23481580.845    23481579.657
        28.100          25.900
 119258483.746 6  92928694.783 5  22694130.006    22694128.191    22694130.082
        38.000          34.000
 115325051.276 7  89863662.557 6  21945638.024    21945639.343    21945637.350
        43.000          37.000
 129554241.743 3 100951348.156 2  24653356.801    24653355.620    24653355.760
        19.300          12.600
 124878876.125 4  97308217.700 4  23763652.373    23763652.665    23763651.741
        27.100          24.900
 111510849.517 7  86891591.498 6  21219791.787    21219789.270    21219791.370
        45.000          40.000
 115032723.580 6  89635901.620 6  21889988.464    21889987.400    21889988.526
        41.000          39.000
 11  1  1  2  5 30.0000000  0 10G18G11G14G24G12G25G09G32G22G31
 123726398.696 4  96410182.778 2  23544344.106    23544343.510    23544343.648
        24.900          13.900
 128711043.099 2 100294330.583 2  24492886.507    24492884.577    24492886.198
        16.100          12.600
 107335992.269 7  83638451.485 8  20425343.004    20425341.614    20425342.499
        44.000          49.000
 123383483.532 4  96142982.087 4  23479092.741    23479092.390    23479091.890
        27.100          28.100
 119287777.396 6  92951521.010 5  22699704.821    22699702.775    22699704.488
        37.000          33.000
 115274164.460 7  89824010.517 6  21935954.067    21935955.707    21935953.737
        43.000          37.000
 129670494.412 3 101041934.660 2  24675476.932    24675477.501    24675477.500
        19.900          15.100
 124789008.587 4  97238191.063 3  23746550.861    23746551.449    23746550.787
        27.100          23.800
 111579710.322 7  86945249.264 6  21232896.129    21232893.077    21232895.155
        45.000          41.000
 114954376.021 6  89574851.606 6  21875079.414    21875078.366    21875079.462
        41.000          39.000
 11  1  1  2  6  0.0000000  0 10G18G11G14G24G12G25G09G32G22G31
 123832339.261 3  96492733.761 3  23564503.943    23564503.544    23564503.691
        23.000          19.300
 128729159.059 2 100308446.926 1  24496333.387    24496331.643    24496333.204
        17.800          11.000
 107337862.703 7  83639908.969 8  20425699.015    20425697.575    20425698.467
        44.000          49.000
 123370962.747 4  96133225.626 4  23476710.176    23476709.933    23476709.634
        28.100          24.900
 119317664.134 6  92974809.381 5  22705391.622    22705389.953    22705391.429
        36.000          33.000
 115223799.984 7  89784765.490 6  21926369.736    21926371.682    21926369.604
        43.000          37.000
 129786783.224 3 101132549.319    24697607.017    24697606.394    24697606.925
        22.100           3.000
 124699318.506 4  97168302.673 4  23729484.306    23729483.957    23729483.586
        29.000          24.900
 111648989.043 7  86999232.669 6  21246080.281    21246076.282    21246078.593
        45.000          40.000
 114876378.901 6  89514074.659 6  21860237.005    21860235.799    21860237.071
        41.000          39.000
 11  1  1  2  6 30.0000000  0 10G18G11G14G24G12G25G09G32G22G31
 123938468.376 3  96575431.683 3  23584699.813    23584699.644    23584698.872
        22.100          21.100
 128747766.195 3 100322946.007 1  24499874.008    24499872.649    24499873.978
        19.300           6.500
 107340033.457 7  83641600.466 8  20426111.963    20426110.646    20426111.480
        44.000          49.000
 123358994.529 4  96123899.743 4  23474432.234    23474432.965    23474431.700
        28.100          27.100
 119348142.312 6  92998558.619 5  22711191.082    22711189.575    22711191.130
        36.000          33.000
 115173959.902 7  89745929.093 6  21916885.189    21916887.568    21916885.271
        43.000          37.000
 129903106.264 3 101223190.665 2  24719742.966    24719741.548    24719742.473
        22.100          12.600
 124609807.795 5  97098554.075 4  23712450.758    23712450.485    23712450.479
        30.100          24.900
 111718684.337 7  87053540.669 6  21259341.452    21259338.875    21259340.957
        45.000          40.000
 114798733.253 6  89453571.582 6  21845461.397    21845460.547    21845461.426
        41.000          39.000
 11  1  1  2  7  0.0000000  0 10G18G11G14G24G12G25G09G32G22G31
 124044784.401 3  96658275.225 3  23604930.691    23604931.136    23604930.415
        23.000          19.300
 128766863.561 2 100337826.994 2  24503508.822    24503507.216    24503508.191
        15.100          17.000
 107342504.601 7  83643526.026 8  20426582.181    20426580.814    20426581.650
        44.000          48.000
 123347578.768 4  96115004.358 4  23472259.736    23472260.442    23472259.235
        27.100          25.900
 119379210.902 6  93022767.913 5  22717103.531    22717102.141    22717103.290
        36.000          34.000
 115124646.301 7  89707502.941 6  21907501.745    21907503.525    21907501.298
        43.000          37.000
 130019461.575 3 101313857.144 2  24741884.842    24741883.772    24741884.181
        21.100          15.100
 124520478.449 4  97028946.797 4  23695452.801    23695451.658    23695451.862
        28.100          24.900
 111788794.998 7  87108172.344 6  21272683.262    21272680.543    21272682.548
        45.000          40.000
 114721440.158 6  89393343.236 6  21830753.106    21830752.209    21830753.170
        41.000          40.000
 11  1  1  2  7 30.0000000  0 10G18G11G14G24G12G25G09G32G22G31
 124151284.787 3  96741262.482 3  23625196.697    23625197.300    23625196.759
        23.000          19.300
 128786449.676 3 100353088.887 1  24507236.398    24507233.580    24507235.475
        19.300           9.000
 107345276.456 7  83645685.900 8  20427109.755    20427108.282    20427109.180
        44.000          48.000
 123336715.675 4  96106539.609 4  23470192.442    23470193.083    23470191.922
        27.100          27.100
 119410868.972 6  93047436.542 5  22723127.689    22723126.520    22723127.809
        37.000          34.000
 115075861.199 7  89669488.593 6  21898218.145    21898220.031    21898217.810
        43.000          37.000
 130135847.066 3 101404547.139 2  24764031.975    24764031.473    24764031.470
        22.100          13.900
 124431332.551 4  96959482.444 4  23678488.647    23678488.155    23678487.624
        29.000          27.100
 111859319.146 7  87163126.219 6  21286104.949    21286100.850    21286103.109
        45.000          40.000
 114644500.599 6  89333390.366 6  21816112.226    21816110.737    21816112.109
        41.000          39.000
 11  1  1  2  8  0.0000000  0 10G18G11G14G24G12G25G09G32G22G31
 124257968.060 3  96824392.253 3  23645499.054    23645498.544    23645498.468
        23.800          19.900
 128806523.007 3 100368730.459    24511055.400    24511053.419    24511055.244
        19.300           3.000
 107348349.209 7  83648080.248 8  20427694.410    20427693.055    20427693.959
        44.000          48.000
 123326405.328 4  96098505.565 4  23468230.844    23468231.161    23468230.112
        25.900          27.100
 119443115.809 6  93072563.947 5  22729264.357    22729263.035    22729264.242
        36.000          34.000
 115027606.559 7  89631887.593 6  21889035.446    21889037.460    21889035.196
        43.000          37.000
 130252260.636 3 101495259.027 2  24786184.473    24786183.667    24786184.388
        19.300          12.600
 124342372.115 4  96890162.644 4  23661560.282    23661559.386    23661559.115
        27.100          27.100
 111930255.697 7  87218401.449 6  21299602.820    21299599.467    21299601.794
        45.000          39.000
 114567915.818 7  89273713.930 6  21801538.457    21801537.140    21801538.485
        42.000          39.000
 11  1  1  2  8 30.0000000  0 10G18G11G14G24G12G25G09G32G22G31
 124364831.964 4  96907662.779 3  23665834.244    23665834.165    23665834.053
        24.900          21.100
 128827082.480 2 100384750.804    24514967.222    24514965.742    24514967.223
        17.000           3.000
 107351722.924 7  83650709.117 8  20428336.496    20428334.992    20428336.014
        44.000          48.000
 123316647.761 4  96090902.271 4  23466373.541    23466374.582    23466373.248
        25.900          25.900
 119475950.008 6  93098149.046 5  22735512.479    22735511.017    22735512.229
        36.000          34.000
 114979884.398 7  89594701.512 6  21879954.747    21879955.905    21879954.143
        44.000          37.000
 130368700.318 2 101585991.250 1  24808340.798    24808341.551    24808341.418
        16.100           6.500
 124253599.202 4  96820988.960 4  23644667.075    23644667.075    23644666.194
        28.100          25.900
 112001603.298 7  87273996.978 6  21313179.484    21313176.462    21313178.639
        44.000          40.000
 114491687.111 7  89214314.960 6  21787032.381    21787031.456    21787032.438
        42.000          40.000
 11  1  1  2  9  0.0000000  0 10G18G11G14G24G12G25G09G32G22G31
 124471874.683 3  96991072.621 2  23686202.942    23686203.589    23686203.245
        22.100          17.800
 128848126.665 3 100401148.867 2  24518972.573    24518970.983    24518972.576
        21.100          13.900
 107355397.844 7  83653572.688 8  20429035.864    20429034.296    20429035.287
        44.000          48.000
 123307442.783 4  96083729.562 4  23464622.213    23464622.793    23464621.579
        27.100          25.900
 119509370.238 6  93124190.780 5  22741871.958    22741870.614    22741871.767
        36.000          34.000
 114932696.664 7  89557931.865 6  21870974.581    21870976.471    21870974.381
        44.000          37.000
 130485164.435 2 101676742.533 1  24830505.299    24830504.864    24830504.171
        17.800           6.500
 124165015.952 4  96751963.059 4  23627810.412    23627809.405    23627809.040
        27.100          25.900
 112073360.397 7  87329911.580 6  21326835.130    21326831.481    21326833.640
        44.000          40.000
 114415815.117 7  89155193.952 6  21772594.794    21772593.502    21772594.690
        42.000          40.000
 11  1  1  2  9 30.0000000  0 10G18G11G14G24G12G25G09G32G22G31
 124579093.968 3  97074620.023 2  23706606.746    23706606.715    23706606.309
        21.100          16.100
 128869654.221 3 100417923.576 2  24523068.795    24523067.999    24523068.186
        19.900          13.900
 107359374.430 7  83656671.321 8  20429792.450    20429791.028    20429792.032
        44.000          48.000
 123298790.633 4  96076987.633 4  23462975.629    23462976.310    23462975.151
        28.100          25.900
 119543375.875 6  93150688.686 5  22748343.087    22748342.011    22748343.199
        36.000          34.000
 114886045.287 7  89521580.166 6  21862097.205    21862099.075    21862097.019
        44.000          37.000
 130601650.928 2 101767511.254    24852671.383    24852671.524    24852671.274
        13.900
 124076624.288 4  96683086.457 4  23610988.886    23610988.921    23610988.226
        29.000          25.900
 112145525.186 7  87386143.866 6  21340567.062    21340563.956    21340566.134
        44.000          40.000
 114340301.076 7  89096351.868 6  21758224.764    21758223.589    21758224.795
        42.000          40.000
